[{"codigo": "0801010001", "nombre": "CUSCO", "categoria": "CIUDAD", "departamento": "CUSCO", "provincia": "CUSCO", "distrito": "CUSCO", "ubigeo_distrito": "080101", "lat": -13.51927548, "lon": -71.97675606, "altitud": 3439, "poblacion": 111930}, {"codigo": "0801010002", "nombre": "HUILLCAPATA", "categoria": "ANEXO", "departamento": "CUSCO", "provincia": "CUSCO", "distrito": "CUSCO", "ubigeo_distrito": "080101", "lat": -13.4597644, "lon": -71.9273199, "altitud": 3657, "poblacion": 309}, {"codigo": "0801010003", "nombre": "MUYOORCCO", "categoria": "OTROS", "departamento": "CUSCO", "provincia": "CUSCO", "distrito": "CUSCO", "ubigeo_distrito": "080101", "lat": -13.46651398, "lon": -71.96035253, "altitud": 3780, "poblacion": 0}, {"codigo": "0801010004", "nombre": "SALKANTAY", "categoria": "CASERIO", "departamento": "CUSCO", "provincia": "CUSCO", "distrito": "CUSCO", "ubigeo_distrito": "080101", "lat": -13.47553051, "lon": -71.99262466, "altitud": 4006, "poblacion": 5}, {"codigo": "0801010005", "nombre": "SEQQUERACCAY", "categoria": "CASERIO", "departamento": "CUSCO", "provincia": "CUSCO", "distrito": "CUSCO", "ubigeo_distrito": "080101", "lat": -13.46172947, "lon": -71.93727515, "altitud": 3703, "poblacion": 147}, {"codigo": "0801010006", "nombre": "PAUCARPATA", "categoria": "OTROS", "departamento": "CUSCO", "provincia": "CUSCO", "distrito": "CUSCO", "ubigeo_distrito": "080101", "lat": -13.46338998, "lon": -71.92945998, "altitud": 3642, "poblacion": 219}, {"codigo": "0801010007", "nombre": "QUESER GRANDE", "categoria": "OTROS", "departamento": "CUSCO", "provincia": "CUSCO", "distrito": "CUSCO", "ubigeo_distrito": "080101", "lat": -13.46840017, "lon": -71.95843894, "altitud": 3808, "poblacion": 23}, {"codigo": "0801010008", "nombre": "QORIMARCA", "categoria": "CASERIO", "departamento": "CUSCO", "provincia": "CUSCO", "distrito": "CUSCO", "ubigeo_distrito": "080101", "lat": -13.46887879, "lon": -71.94019472, "altitud": 3714, "poblacion": 184}, {"codigo": "0801010010", "nombre": "QUESER CHICO", "categoria": "OTROS", "departamento": "CUSCO", "provincia": "CUSCO", "distrito": "CUSCO", "ubigeo_distrito": "080101", "lat": -13.46976319, "lon": -71.95151522, "altitud": 3794, "poblacion": 18}, {"codigo": "0801010012", "nombre": "PUCARA", "categoria": "OTROS", "departamento": "CUSCO", "provincia": "CUSCO", "distrito": "CUSCO", "ubigeo_distrito": "080101", "lat": -13.48874975, "lon": -71.99287336, "altitud": 3870, "poblacion": 51}, {"codigo": "0801010015", "nombre": "CHACAN", "categoria": "OTROS", "departamento": "CUSCO", "provincia": "CUSCO", "distrito": "CUSCO", "ubigeo_distrito": "080101", "lat": -13.48907992, "lon": -71.98192778, "altitud": 3890, "poblacion": 31}, {"codigo": "0801010016", "nombre": "TAMBOMACHAY", "categoria": "CASERIO", "departamento": "CUSCO", "provincia": "CUSCO", "distrito": "CUSCO", "ubigeo_distrito": "080101", "lat": -13.48171842, "lon": -71.96592744, "altitud": 3849, "poblacion": 132}, {"codigo": "0801010020", "nombre": "MOLLOCOCHA", "categoria": "ANEXO", "departamento": "CUSCO", "provincia": "CUSCO", "distrito": "CUSCO", "ubigeo_distrito": "080101", "lat": -13.50625273, "lon": -71.97663688, "altitud": 3621, "poblacion": 125}, {"codigo": "0801010021", "nombre": "HUAYLLARCOCHA", "categoria": "CASERIO", "departamento": "CUSCO", "provincia": "CUSCO", "distrito": "CUSCO", "ubigeo_distrito": "080101", "lat": -13.48950994, "lon": -71.96631435, "altitud": 3834, "poblacion": 383}, {"codigo": "0801010022", "nombre": "PUCRO", "categoria": "OTROS", "departamento": "CUSCO", "provincia": "CUSCO", "distrito": "CUSCO", "ubigeo_distrito": "080101", "lat": -13.50295623, "lon": -71.97929464, "altitud": 3649, "poblacion": 124}, {"codigo": "0801010023", "nombre": "YUNCAYPATA", "categoria": "CASERIO", "departamento": "CUSCO", "provincia": "CUSCO", "distrito": "CUSCO", "ubigeo_distrito": "080101", "lat": -13.48956732, "lon": -71.94605517, "altitud": 3770, "poblacion": 279}, {"codigo": "0801010027", "nombre": "HUAYTTANCCAPAMPA", "categoria": "OTROS", "departamento": "CUSCO", "provincia": "CUSCO", "distrito": "CUSCO", "ubigeo_distrito": "080101", "lat": -13.49714608, "lon": -71.98925886, "altitud": 3757, "poblacion": 22}, {"codigo": "0801010028", "nombre": "CCOYAPATA", "categoria": "OTROS", "departamento": "CUSCO", "provincia": "CUSCO", "distrito": "CUSCO", "ubigeo_distrito": "080101", "lat": -13.49490138, "lon": -71.98636757, "altitud": 3806, "poblacion": 61}, {"codigo": "0801010030", "nombre": "LLAULLIPATA", "categoria": "OTROS", "departamento": "CUSCO", "provincia": "CUSCO", "distrito": "CUSCO", "ubigeo_distrito": "080101", "lat": -13.49827473, "lon": -71.98554747, "altitud": 3762, "poblacion": 35}, {"codigo": "0801010032", "nombre": "FORTALEZA SACSAYHUAMAN", "categoria": "ANEXO", "departamento": "CUSCO", "provincia": "CUSCO", "distrito": "CUSCO", "ubigeo_distrito": "080101", "lat": -13.50252004, "lon": -71.98212786, "altitud": 3675, "poblacion": 274}, {"codigo": "0801010035", "nombre": "LOS HUERTOS", "categoria": "OTROS", "departamento": "CUSCO", "provincia": "CUSCO", "distrito": "CUSCO", "ubigeo_distrito": "080101", "lat": -13.50828139, "lon": -71.94536708, "altitud": 3634, "poblacion": 47}, {"codigo": "0801010036", "nombre": "KALLACHACA", "categoria": "CASERIO", "departamento": "CUSCO", "provincia": "CUSCO", "distrito": "CUSCO", "ubigeo_distrito": "080101", "lat": -13.51248571, "lon": -71.947578, "altitud": 3562, "poblacion": 21}, {"codigo": "0801010038", "nombre": "LEON HIYOC", "categoria": "OTROS", "departamento": "CUSCO", "provincia": "CUSCO", "distrito": "CUSCO", "ubigeo_distrito": "080101", "lat": -13.53174108, "lon": -72.00962683, "altitud": 3835, "poblacion": 9}, {"codigo": "0801010039", "nombre": "PULTIYOC", "categoria": "OTROS", "departamento": "CUSCO", "provincia": "CUSCO", "distrito": "CUSCO", "ubigeo_distrito": "080101", "lat": -13.53729036, "lon": -72.02351388, "altitud": 3919, "poblacion": 10}, {"codigo": "0801010040", "nombre": "KELLO KAKA", "categoria": "OTROS", "departamento": "CUSCO", "provincia": "CUSCO", "distrito": "CUSCO", "ubigeo_distrito": "080101", "lat": -13.5359869, "lon": -72.03490979, "altitud": 3803, "poblacion": 5}, {"codigo": "0801010042", "nombre": "CHACONAYOC", "categoria": "OTROS", "departamento": "CUSCO", "provincia": "CUSCO", "distrito": "CUSCO", "ubigeo_distrito": "080101", "lat": -13.53448948, "lon": -72.00797171, "altitud": 3870, "poblacion": 2}, {"codigo": "0801010044", "nombre": "HUANCABAMBA", "categoria": "OTROS", "departamento": "CUSCO", "provincia": "CUSCO", "distrito": "CUSCO", "ubigeo_distrito": "080101", "lat": -13.54337441, "lon": -72.02975653, "altitud": 3819, "poblacion": 52}, {"codigo": "0801010045", "nombre": "HUCHUY LLANACANCHA", "categoria": "CASERIO", "departamento": "CUSCO", "provincia": "CUSCO", "distrito": "CUSCO", "ubigeo_distrito": "080101", "lat": -13.54156998, "lon": -72.01669998, "altitud": 3924, "poblacion": 0}, {"codigo": "0801010046", "nombre": "CCOCHAPATA", "categoria": "OTROS", "departamento": "CUSCO", "provincia": "CUSCO", "distrito": "CUSCO", "ubigeo_distrito": "080101", "lat": -13.54260151, "lon": -72.02412332, "altitud": 3959, "poblacion": 1}, {"codigo": "0801010047", "nombre": "HUAYLLACANCHA", "categoria": "OTROS", "departamento": "CUSCO", "provincia": "CUSCO", "distrito": "CUSCO", "ubigeo_distrito": "080101", "lat": -13.54139212, "lon": -72.02433254, "altitud": 3948, "poblacion": 1}, {"codigo": "0801010049", "nombre": "YANAHUAYLLA", "categoria": "OTROS", "departamento": "CUSCO", "provincia": "CUSCO", "distrito": "CUSCO", "ubigeo_distrito": "080101", "lat": -13.50855998, "lon": -71.94430998, "altitud": 3593, "poblacion": 0}, {"codigo": "0801010052", "nombre": "LLAMACANCHA", "categoria": "OTROS", "departamento": "CUSCO", "provincia": "CUSCO", "distrito": "CUSCO", "ubigeo_distrito": "080101", "lat": -13.52824405, "lon": -72.01107338, "altitud": 3869, "poblacion": 9}, {"codigo": "0801010053", "nombre": "CHILLI ORQO", "categoria": "OTROS", "departamento": "CUSCO", "provincia": "CUSCO", "distrito": "CUSCO", "ubigeo_distrito": "080101", "lat": -13.52373146, "lon": -72.0066112, "altitud": 3799, "poblacion": 1}, {"codigo": "0801010054", "nombre": "PICCHO MULACHAYOC", "categoria": "OTROS", "departamento": "CUSCO", "provincia": "CUSCO", "distrito": "CUSCO", "ubigeo_distrito": "080101", "lat": -13.53711998, "lon": -72.02055998, "altitud": 3914, "poblacion": 0}, {"codigo": "0801010059", "nombre": "AGRICULTORES ECOLOGICOS", "categoria": "OTROS", "departamento": "CUSCO", "provincia": "CUSCO", "distrito": "CUSCO", "ubigeo_distrito": "080101", "lat": -13.52729939, "lon": -72.00642768, "altitud": 3836, "poblacion": 22}, {"codigo": "0801010060", "nombre": "HUACARUMIYOC", "categoria": "OTROS", "departamento": "CUSCO", "provincia": "CUSCO", "distrito": "CUSCO", "ubigeo_distrito": "080101", "lat": -13.49971417, "lon": -71.98298557, "altitud": 3760, "poblacion": 98}, {"codigo": "0801020001", "nombre": "CCORCA", "categoria": "PUEBLO", "departamento": "CUSCO", "provincia": "CUSCO", "distrito": "CCORCA", "ubigeo_distrito": "080102", "lat": -13.58476959, "lon": -72.05914347, "altitud": 3675, "poblacion": 265}, {"codigo": "0801020003", "nombre": "CUSIBAMBA", "categoria": "CASERIO", "departamento": "CUSCO", "provincia": "CUSCO", "distrito": "CCORCA", "ubigeo_distrito": "080102", "lat": -13.54487167, "lon": -72.08083333, "altitud": 3766, "poblacion": 522}, {"codigo": "0801020004", "nombre": "QUISHUARCANCHA", "categoria": "OTROS", "departamento": "CUSCO", "provincia": "CUSCO", "distrito": "CCORCA", "ubigeo_distrito": "080102", "lat": -13.56336833, "lon": -72.035495, "altitud": 3929, "poblacion": 22}, {"codigo": "0801020005", "nombre": "HUAYLLAY", "categoria": "CASERIO", "departamento": "CUSCO", "provincia": "CUSCO", "distrito": "CCORCA", "ubigeo_distrito": "080102", "lat": -13.56725, "lon": -72.06664833, "altitud": 3680, "poblacion": 216}, {"codigo": "0801020006", "nombre": "ROCACANCHAPATA", "categoria": "ANEXO", "departamento": "CUSCO", "provincia": "CUSCO", "distrito": "CCORCA", "ubigeo_distrito": "080102", "lat": -13.57038, "lon": -72.15636, "altitud": 4001, "poblacion": 3}, {"codigo": "0801020007", "nombre": "TOTORA", "categoria": "CASERIO", "departamento": "CUSCO", "provincia": "CUSCO", "distrito": "CCORCA", "ubigeo_distrito": "080102", "lat": -13.57279724, "lon": -72.10551745, "altitud": 3816, "poblacion": 322}, {"codigo": "0801020009", "nombre": "CCORCCA AYLLU", "categoria": "CASERIO", "departamento": "CUSCO", "provincia": "CUSCO", "distrito": "CCORCA", "ubigeo_distrito": "080102", "lat": -13.58227833, "lon": -72.07205833, "altitud": 3692, "poblacion": 241}, {"codigo": "0801020010", "nombre": "QUISACCASA", "categoria": "CASERIO", "departamento": "CUSCO", "provincia": "CUSCO", "distrito": "CCORCA", "ubigeo_distrito": "080102", "lat": -13.577335, "lon": -72.13663, "altitud": 3892, "poblacion": 7}, {"codigo": "0801020011", "nombre": "TAMBORPUGIO", "categoria": "ANEXO", "departamento": "CUSCO", "provincia": "CUSCO", "distrito": "CCORCA", "ubigeo_distrito": "080102", "lat": -13.57884, "lon": -72.02131, "altitud": 3946, "poblacion": 77}, {"codigo": "0801020012", "nombre": "MAYUMBAMBA", "categoria": "OTROS", "departamento": "CUSCO", "provincia": "CUSCO", "distrito": "CCORCA", "ubigeo_distrito": "080102", "lat": -13.59058167, "lon": -72.06460667, "altitud": 3501, "poblacion": 2}, {"codigo": "0801020013", "nombre": "CHUSPI", "categoria": "ANEXO", "departamento": "CUSCO", "provincia": "CUSCO", "distrito": "CCORCA", "ubigeo_distrito": "080102", "lat": -13.59800167, "lon": -72.04395, "altitud": 3532, "poblacion": 45}, {"codigo": "0801020016", "nombre": "URATIAC", "categoria": "ANEXO", "departamento": "CUSCO", "provincia": "CUSCO", "distrito": "CCORCA", "ubigeo_distrito": "080102", "lat": -13.60093333, "lon": -72.04242667, "altitud": 3656, "poblacion": 50}, {"codigo": "0801020017", "nombre": "POCCORAY", "categoria": "OTROS", "departamento": "CUSCO", "provincia": "CUSCO", "distrito": "CCORCA", "ubigeo_distrito": "080102", "lat": -13.601275, "lon": -72.055645, "altitud": 3508, "poblacion": 0}, {"codigo": "0801020018", "nombre": "VENTANAYOC RUMARAY", "categoria": "CASERIO", "departamento": "CUSCO", "provincia": "CUSCO", "distrito": "CCORCA", "ubigeo_distrito": "080102", "lat": -13.60444667, "lon": -72.066855, "altitud": 3666, "poblacion": 242}, {"codigo": "0801020019", "nombre": "SAN ISIDRO DE CCARHUIS", "categoria": "OTROS", "departamento": "CUSCO", "provincia": "CUSCO", "distrito": "CCORCA", "ubigeo_distrito": "080102", "lat": -13.60688833, "lon": -72.04455333, "altitud": 3721, "poblacion": 98}, {"codigo": "0801020020", "nombre": "CCOYAC", "categoria": "ANEXO", "departamento": "CUSCO", "provincia": "CUSCO", "distrito": "CCORCA", "ubigeo_distrito": "080102", "lat": -13.61681833, "lon": -72.06795833, "altitud": 3691, "poblacion": 88}, {"codigo": "0801020022", "nombre": "CORIMARCA", "categoria": "OTROS", "departamento": "CUSCO", "provincia": "CUSCO", "distrito": "CCORCA", "ubigeo_distrito": "080102", "lat": -13.62328833, "lon": -72.06356667, "altitud": 3670, "poblacion": 35}, {"codigo": "0801020028", "nombre": "CHARAMPAMPA", "categoria": "OTROS", "departamento": "CUSCO", "provincia": "CUSCO", "distrito": "CCORCA", "ubigeo_distrito": "080102", "lat": -13.57139833, "lon": -72.14721333, "altitud": 3895, "poblacion": 0}, {"codigo": "0801020030", "nombre": "CRUZ MOCCO", "categoria": "OTROS", "departamento": "CUSCO", "provincia": "CUSCO", "distrito": "CCORCA", "ubigeo_distrito": "080102", "lat": -13.58746, "lon": -72.14916333, "altitud": 3995, "poblacion": 3}, {"codigo": "0801020031", "nombre": "TTINCANCHA PATA", "categoria": "OTROS", "departamento": "CUSCO", "provincia": "CUSCO", "distrito": "CCORCA", "ubigeo_distrito": "080102", "lat": -13.59238333, "lon": -72.13803667, "altitud": 4013, "poblacion": 6}, {"codigo": "0801020032", "nombre": "CUNCACHA", "categoria": "OTROS", "departamento": "CUSCO", "provincia": "CUSCO", "distrito": "CCORCA", "ubigeo_distrito": "080102", "lat": -13.59591333, "lon": -72.130985, "altitud": 4050, "poblacion": 2}, {"codigo": "0801020034", "nombre": "LOMP OROMIYOCC", "categoria": "OTROS", "departamento": "CUSCO", "provincia": "CUSCO", "distrito": "CCORCA", "ubigeo_distrito": "080102", "lat": -13.56824667, "lon": -72.07653333, "altitud": 3707, "poblacion": 0}, {"codigo": "0801030001", "nombre": "POROY", "categoria": "PUEBLO", "departamento": "CUSCO", "provincia": "CUSCO", "distrito": "POROY", "ubigeo_distrito": "080103", "lat": -13.49445833, "lon": -72.04469456, "altitud": 3508, "poblacion": 1410}, {"codigo": "0801030002", "nombre": "HUARA HUAYLLA", "categoria": "OTROS", "departamento": "CUSCO", "provincia": "CUSCO", "distrito": "POROY", "ubigeo_distrito": "080103", "lat": -13.47903667, "lon": -72.02521, "altitud": 3886, "poblacion": 21}, {"codigo": "0801030004", "nombre": "QUISPIHUARA", "categoria": "OTROS", "departamento": "CUSCO", "provincia": "CUSCO", "distrito": "POROY", "ubigeo_distrito": "080103", "lat": -13.48341998, "lon": -72.02325998, "altitud": 3672, "poblacion": 50}, {"codigo": "0801030007", "nombre": "PAUCARPATA", "categoria": "OTROS", "departamento": "CUSCO", "provincia": "CUSCO", "distrito": "POROY", "ubigeo_distrito": "080103", "lat": -13.48948825, "lon": -72.04698237, "altitud": 3512, "poblacion": 43}, {"codigo": "0801030008", "nombre": "JOCCOS COLLO PAMPA", "categoria": "OTROS", "departamento": "CUSCO", "provincia": "CUSCO", "distrito": "POROY", "ubigeo_distrito": "080103", "lat": -13.48726329, "lon": -72.04279168, "altitud": 3489, "poblacion": 11}, {"codigo": "0801030009", "nombre": "TICAHUERTA (HUARAHUAYLLA)", "categoria": "CASERIO", "departamento": "CUSCO", "provincia": "CUSCO", "distrito": "POROY", "ubigeo_distrito": "080103", "lat": -13.48763273, "lon": -72.0410142, "altitud": 3599, "poblacion": 143}, {"codigo": "0801030010", "nombre": "URBAMBILLAYOC", "categoria": "CASERIO", "departamento": "CUSCO", "provincia": "CUSCO", "distrito": "POROY", "ubigeo_distrito": "080103", "lat": -13.492298, "lon": -72.04319, "altitud": 3509, "poblacion": 50}, {"codigo": "0801030011", "nombre": "CHULLUNCOY", "categoria": "OTROS", "departamento": "CUSCO", "provincia": "CUSCO", "distrito": "POROY", "ubigeo_distrito": "080103", "lat": -13.49962, "lon": -72.02706, "altitud": 3573, "poblacion": 57}, {"codigo": "0801030013", "nombre": "QUEÑUAPATA", "categoria": "OTROS", "departamento": "CUSCO", "provincia": "CUSCO", "distrito": "POROY", "ubigeo_distrito": "080103", "lat": -13.49493833, "lon": -72.03612167, "altitud": 3541, "poblacion": 26}, {"codigo": "0801030014", "nombre": "HUAMPAR", "categoria": "CASERIO", "departamento": "CUSCO", "provincia": "CUSCO", "distrito": "POROY", "ubigeo_distrito": "080103", "lat": -13.501005, "lon": -72.02954167, "altitud": 3540, "poblacion": 390}, {"codigo": "0801030017", "nombre": "CHINCHAYSUYO", "categoria": "CASERIO", "departamento": "CUSCO", "provincia": "CUSCO", "distrito": "POROY", "ubigeo_distrito": "080103", "lat": -13.49749998, "lon": -72.03354998, "altitud": 3516, "poblacion": 86}, {"codigo": "0801030018", "nombre": "RAYAMPATA", "categoria": "CASERIO", "departamento": "CUSCO", "provincia": "CUSCO", "distrito": "POROY", "ubigeo_distrito": "080103", "lat": -13.49234833, "lon": -72.03827667, "altitud": 3571, "poblacion": 50}, {"codigo": "0801030021", "nombre": "LLANUMPATA", "categoria": "OTROS", "departamento": "CUSCO", "provincia": "CUSCO", "distrito": "POROY", "ubigeo_distrito": "080103", "lat": -13.50602, "lon": -72.04706833, "altitud": 3573, "poblacion": 17}, {"codigo": "0801030024", "nombre": "OLLUCOPAMPA", "categoria": "OTROS", "departamento": "CUSCO", "provincia": "CUSCO", "distrito": "POROY", "ubigeo_distrito": "080103", "lat": -13.49146234, "lon": -72.02360529, "altitud": 3800, "poblacion": 0}, {"codigo": "0801030028", "nombre": "YANAMAYO", "categoria": "OTROS", "departamento": "CUSCO", "provincia": "CUSCO", "distrito": "POROY", "ubigeo_distrito": "080103", "lat": -13.50046, "lon": -72.03113667, "altitud": 3542, "poblacion": 24}, {"codigo": "0801030030", "nombre": "PREDIO HUAYNA CORCOR", "categoria": "OTROS", "departamento": "CUSCO", "provincia": "CUSCO", "distrito": "POROY", "ubigeo_distrito": "080103", "lat": -13.47795333, "lon": -72.02336167, "altitud": 3911, "poblacion": 40}, {"codigo": "0801030031", "nombre": "LLACUARMAQUI", "categoria": "OTROS", "departamento": "CUSCO", "provincia": "CUSCO", "distrito": "POROY", "ubigeo_distrito": "080103", "lat": -13.49268, "lon": -72.04158, "altitud": 3523, "poblacion": 18}, {"codigo": "0801040001", "nombre": "SAN JERONIMO", "categoria": "PUEBLO", "departamento": "CUSCO", "provincia": "CUSCO", "distrito": "SAN JERONIMO", "ubigeo_distrito": "080104", "lat": -13.54444549, "lon": -71.88358546, "altitud": 3289, "poblacion": 55335}, {"codigo": "0801040002", "nombre": "SAUCOCALLE", "categoria": "OTROS", "departamento": "CUSCO", "provincia": "CUSCO", "distrito": "SAN JERONIMO", "ubigeo_distrito": "080104", "lat": -13.50982193, "lon": -71.85206832, "altitud": 3756, "poblacion": 9}, {"codigo": "0801040003", "nombre": "HUACCOTO", "categoria": "CASERIO", "departamento": "CUSCO", "provincia": "CUSCO", "distrito": "SAN JERONIMO", "ubigeo_distrito": "080104", "lat": -13.51588792, "lon": -71.85056664, "altitud": 4111, "poblacion": 201}, {"codigo": "0801040004", "nombre": "CONCEVIDAYOC", "categoria": "OTROS", "departamento": "CUSCO", "provincia": "CUSCO", "distrito": "SAN JERONIMO", "ubigeo_distrito": "080104", "lat": -13.52899548, "lon": -71.88936678, "altitud": 3483, "poblacion": 36}, {"codigo": "0801040015", "nombre": "PALPANCAY", "categoria": "UNIDAD AGROPECUARIA", "departamento": "CUSCO", "provincia": "CUSCO", "distrito": "SAN JERONIMO", "ubigeo_distrito": "080104", "lat": -13.57218371, "lon": -71.88107488, "altitud": 3324, "poblacion": 121}, {"codigo": "0801040016", "nombre": "MAMATUNYA", "categoria": "OTROS", "departamento": "CUSCO", "provincia": "CUSCO", "distrito": "SAN JERONIMO", "ubigeo_distrito": "080104", "lat": -13.57000702, "lon": -71.8825011, "altitud": 3358, "poblacion": 40}, {"codigo": "0801040017", "nombre": "LLOQUEMOCCO", "categoria": "OTROS", "departamento": "CUSCO", "provincia": "CUSCO", "distrito": "SAN JERONIMO", "ubigeo_distrito": "080104", "lat": -13.5894717, "lon": -71.87904354, "altitud": 3521, "poblacion": 0}, {"codigo": "0801040018", "nombre": "PILLAO MATAO", "categoria": "CASERIO", "departamento": "CUSCO", "provincia": "CUSCO", "distrito": "SAN JERONIMO", "ubigeo_distrito": "080104", "lat": -13.55872716, "lon": -71.91396854, "altitud": 3386, "poblacion": 361}, {"codigo": "0801040019", "nombre": "COLLPARO", "categoria": "ANEXO", "departamento": "CUSCO", "provincia": "CUSCO", "distrito": "SAN JERONIMO", "ubigeo_distrito": "080104", "lat": -13.56601278, "lon": -71.87981443, "altitud": 3293, "poblacion": 92}, {"codigo": "0801040020", "nombre": "MUNAYHUARMI", "categoria": "OTROS", "departamento": "CUSCO", "provincia": "CUSCO", "distrito": "SAN JERONIMO", "ubigeo_distrito": "080104", "lat": -13.57569306, "lon": -71.88168536, "altitud": 3338, "poblacion": 7}, {"codigo": "0801040021", "nombre": "PUMAHUANCA", "categoria": "OTROS", "departamento": "CUSCO", "provincia": "CUSCO", "distrito": "SAN JERONIMO", "ubigeo_distrito": "080104", "lat": -13.58923725, "lon": -71.89340734, "altitud": 3611, "poblacion": 17}, {"codigo": "0801040023", "nombre": "SUNCCO", "categoria": "CASERIO", "departamento": "CUSCO", "provincia": "CUSCO", "distrito": "SAN JERONIMO", "ubigeo_distrito": "080104", "lat": -13.58706411, "lon": -71.88827242, "altitud": 3543, "poblacion": 260}, {"codigo": "0801040025", "nombre": "USPHABAMBA", "categoria": "CASERIO", "departamento": "CUSCO", "provincia": "CUSCO", "distrito": "SAN JERONIMO", "ubigeo_distrito": "080104", "lat": -13.59934121, "lon": -71.86561044, "altitud": 3726, "poblacion": 121}, {"codigo": "0801040026", "nombre": "CONCHACALLA", "categoria": "CASERIO", "departamento": "CUSCO", "provincia": "CUSCO", "distrito": "SAN JERONIMO", "ubigeo_distrito": "080104", "lat": -13.60098484, "lon": -71.8595834, "altitud": 3722, "poblacion": 116}, {"codigo": "0801040027", "nombre": "FIERROCCATA", "categoria": "OTROS", "departamento": "CUSCO", "provincia": "CUSCO", "distrito": "SAN JERONIMO", "ubigeo_distrito": "080104", "lat": -13.59213137, "lon": -71.87682749, "altitud": 3575, "poblacion": 8}, {"codigo": "0801040028", "nombre": "CCACHUPATA", "categoria": "OTROS", "departamento": "CUSCO", "provincia": "CUSCO", "distrito": "SAN JERONIMO", "ubigeo_distrito": "080104", "lat": -13.61126447, "lon": -71.84966086, "altitud": 3881, "poblacion": 34}, {"codigo": "0801040029", "nombre": "CALLAMPATA", "categoria": "OTROS", "departamento": "CUSCO", "provincia": "CUSCO", "distrito": "SAN JERONIMO", "ubigeo_distrito": "080104", "lat": -13.54830422, "lon": -71.86220345, "altitud": 3299, "poblacion": 16}, {"codigo": "0801040035", "nombre": "LA ARAPITA SAN LUIS", "categoria": "OTROS", "departamento": "CUSCO", "provincia": "CUSCO", "distrito": "SAN JERONIMO", "ubigeo_distrito": "080104", "lat": -13.53558012, "lon": -71.89362832, "altitud": 3378, "poblacion": 54}, {"codigo": "0801040048", "nombre": "KAYRAPAMPA", "categoria": "OTROS", "departamento": "CUSCO", "provincia": "CUSCO", "distrito": "SAN JERONIMO", "ubigeo_distrito": "080104", "lat": -13.56294556, "lon": -71.88032412, "altitud": 3286, "poblacion": 68}, {"codigo": "0801040049", "nombre": "KAYRA", "categoria": "OTROS", "departamento": "CUSCO", "provincia": "CUSCO", "distrito": "SAN JERONIMO", "ubigeo_distrito": "080104", "lat": -13.56232858, "lon": -71.87741263, "altitud": 3282, "poblacion": 12}, {"codigo": "0801040050", "nombre": "QUISHUARPATA", "categoria": "OTROS", "departamento": "CUSCO", "provincia": "CUSCO", "distrito": "SAN JERONIMO", "ubigeo_distrito": "080104", "lat": -13.58662226, "lon": -71.88311751, "altitud": 3555, "poblacion": 2}, {"codigo": "0801040056", "nombre": "QORICALLE", "categoria": "", "departamento": "CUSCO", "provincia": "CUSCO", "distrito": "SAN JERONIMO", "ubigeo_distrito": "080104", "lat": -13.5359516, "lon": -71.88504703, "altitud": 3391, "poblacion": 96}, {"codigo": "0801040057", "nombre": "LOS JARDINES", "categoria": "", "departamento": "CUSCO", "provincia": "CUSCO", "distrito": "SAN JERONIMO", "ubigeo_distrito": "080104", "lat": -13.53714348, "lon": -71.88727648, "altitud": 3348, "poblacion": 30}, {"codigo": "0801040058", "nombre": "TANQARHUACHUNA", "categoria": "", "departamento": "CUSCO", "provincia": "CUSCO", "distrito": "SAN JERONIMO", "ubigeo_distrito": "080104", "lat": -13.53463924, "lon": -71.88876488, "altitud": 3379, "poblacion": 0}, {"codigo": "0801040059", "nombre": "QUINSACRUZ", "categoria": "", "departamento": "CUSCO", "provincia": "CUSCO", "distrito": "SAN JERONIMO", "ubigeo_distrito": "080104", "lat": -13.6156652, "lon": -71.84647811, "altitud": 3901, "poblacion": 17}, {"codigo": "0801040060", "nombre": "DUEÑOCCHUCO", "categoria": "", "departamento": "CUSCO", "provincia": "CUSCO", "distrito": "SAN JERONIMO", "ubigeo_distrito": "080104", "lat": -13.55821607, "lon": -71.87818739, "altitud": 3264, "poblacion": 22}, {"codigo": "0801050001", "nombre": "SAN SEBASTIAN", "categoria": "PUEBLO", "departamento": "CUSCO", "provincia": "CUSCO", "distrito": "SAN SEBASTIAN", "ubigeo_distrito": "080105", "lat": -13.53021631, "lon": -71.93700165, "altitud": 3578, "poblacion": 109915}, {"codigo": "0801050002", "nombre": "CCORAO", "categoria": "CASERIO", "departamento": "CUSCO", "provincia": "CUSCO", "distrito": "SAN SEBASTIAN", "ubigeo_distrito": "080105", "lat": -13.47642949, "lon": -71.92269333, "altitud": 3606, "poblacion": 902}, {"codigo": "0801050005", "nombre": "MISQUIUNNO", "categoria": "ANEXO", "departamento": "CUSCO", "provincia": "CUSCO", "distrito": "SAN SEBASTIAN", "ubigeo_distrito": "080105", "lat": -13.50097436, "lon": -71.93391758, "altitud": 3567, "poblacion": 164}, {"codigo": "0801050006", "nombre": "PUMAMARCA", "categoria": "CASERIO", "departamento": "CUSCO", "provincia": "CUSCO", "distrito": "SAN SEBASTIAN", "ubigeo_distrito": "080105", "lat": -13.50455377, "lon": -71.91999768, "altitud": 3581, "poblacion": 604}, {"codigo": "0801050007", "nombre": "QUILLAHUATA", "categoria": "ANEXO", "departamento": "CUSCO", "provincia": "CUSCO", "distrito": "SAN SEBASTIAN", "ubigeo_distrito": "080105", "lat": -13.50786243, "lon": -71.93243548, "altitud": 3565, "poblacion": 393}, {"codigo": "0801050009", "nombre": "QUESALLAY (MOLLERAY)", "categoria": "ANEXO", "departamento": "CUSCO", "provincia": "CUSCO", "distrito": "SAN SEBASTIAN", "ubigeo_distrito": "080105", "lat": -13.55341395, "lon": -71.95369103, "altitud": 3462, "poblacion": 26}, {"codigo": "0801050010", "nombre": "HUILLCARPAY", "categoria": "CASERIO", "departamento": "CUSCO", "provincia": "CUSCO", "distrito": "SAN SEBASTIAN", "ubigeo_distrito": "080105", "lat": -13.56313921, "lon": -71.9453212, "altitud": 3480, "poblacion": 187}, {"codigo": "0801050011", "nombre": "KIRCAS", "categoria": "OTROS", "departamento": "CUSCO", "provincia": "CUSCO", "distrito": "SAN SEBASTIAN", "ubigeo_distrito": "080105", "lat": -13.58626337, "lon": -71.90746352, "altitud": 3737, "poblacion": 33}, {"codigo": "0801050012", "nombre": "KIRCAS CHICO", "categoria": "ANEXO", "departamento": "CUSCO", "provincia": "CUSCO", "distrito": "SAN SEBASTIAN", "ubigeo_distrito": "080105", "lat": -13.587001, "lon": -71.910188, "altitud": 3794, "poblacion": 42}, {"codigo": "0801050013", "nombre": "ACPITAN", "categoria": "ANEXO", "departamento": "CUSCO", "provincia": "CUSCO", "distrito": "SAN SEBASTIAN", "ubigeo_distrito": "080105", "lat": -13.59399017, "lon": -71.9077949, "altitud": 4008, "poblacion": 24}, {"codigo": "0801050014", "nombre": "PUNACANCHA", "categoria": "CASERIO", "departamento": "CUSCO", "provincia": "CUSCO", "distrito": "SAN SEBASTIAN", "ubigeo_distrito": "080105", "lat": -13.56627251, "lon": -71.93976583, "altitud": 3502, "poblacion": 200}, {"codigo": "0801050022", "nombre": "SUCSOAUCAYLLE", "categoria": "OTROS", "departamento": "CUSCO", "provincia": "CUSCO", "distrito": "SAN SEBASTIAN", "ubigeo_distrito": "080105", "lat": -13.51440342, "lon": -71.93758094, "altitud": 3621, "poblacion": 36}, {"codigo": "0801050027", "nombre": "KIRCAS GRANDE", "categoria": "OTROS", "departamento": "CUSCO", "provincia": "CUSCO", "distrito": "SAN SEBASTIAN", "ubigeo_distrito": "080105", "lat": -13.59157507, "lon": -71.90668894, "altitud": 3922, "poblacion": 1}, {"codigo": "0801050032", "nombre": "KARI GRANDE", "categoria": "OTROS", "departamento": "CUSCO", "provincia": "CUSCO", "distrito": "SAN SEBASTIAN", "ubigeo_distrito": "080105", "lat": -13.51878506, "lon": -71.94077213, "altitud": 3510, "poblacion": 9}, {"codigo": "0801060001", "nombre": "SANTIAGO", "categoria": "CIUDAD", "departamento": "CUSCO", "provincia": "CUSCO", "distrito": "SANTIAGO", "ubigeo_distrito": "080106", "lat": -13.52579559, "lon": -71.98314219, "altitud": 3464, "poblacion": 92729}, {"codigo": "0801060004", "nombre": "CCOCHA CCOCHAYOC", "categoria": "OTROS", "departamento": "CUSCO", "provincia": "CUSCO", "distrito": "SANTIAGO", "ubigeo_distrito": "080106", "lat": -13.54043475, "lon": -72.00651605, "altitud": 3912, "poblacion": 19}, {"codigo": "0801060005", "nombre": "JAQUIRA", "categoria": "OTROS", "departamento": "CUSCO", "provincia": "CUSCO", "distrito": "SANTIAGO", "ubigeo_distrito": "080106", "lat": -13.55544765, "lon": -72.0134368, "altitud": 3914, "poblacion": 22}, {"codigo": "0801060007", "nombre": "CHOCCO", "categoria": "CASERIO", "departamento": "CUSCO", "provincia": "CUSCO", "distrito": "SANTIAGO", "ubigeo_distrito": "080106", "lat": -13.55539629, "lon": -71.97880871, "altitud": 3466, "poblacion": 204}, {"codigo": "0801060008", "nombre": "HUAMANCHARPA", "categoria": "CASERIO", "departamento": "CUSCO", "provincia": "CUSCO", "distrito": "SANTIAGO", "ubigeo_distrito": "080106", "lat": -13.5806751, "lon": -72.00294119, "altitud": 3797, "poblacion": 71}, {"codigo": "0801060010", "nombre": "MAYRASCO", "categoria": "CASERIO", "departamento": "CUSCO", "provincia": "CUSCO", "distrito": "SANTIAGO", "ubigeo_distrito": "080106", "lat": -13.57326367, "lon": -71.99933787, "altitud": 3675, "poblacion": 124}, {"codigo": "0801060011", "nombre": "MIZCCA", "categoria": "OTROS", "departamento": "CUSCO", "provincia": "CUSCO", "distrito": "SANTIAGO", "ubigeo_distrito": "080106", "lat": -13.58167998, "lon": -71.98794998, "altitud": 3884, "poblacion": 0}, {"codigo": "0801060012", "nombre": "HUASAMPATA", "categoria": "PUEBLO", "departamento": "CUSCO", "provincia": "CUSCO", "distrito": "SANTIAGO", "ubigeo_distrito": "080106", "lat": -13.59578125, "lon": -71.99789423, "altitud": 3952, "poblacion": 80}, {"codigo": "0801060013", "nombre": "CHECCO PERCA", "categoria": "CASERIO", "departamento": "CUSCO", "provincia": "CUSCO", "distrito": "SANTIAGO", "ubigeo_distrito": "080106", "lat": -13.61002072, "lon": -71.98307023, "altitud": 3916, "poblacion": 163}, {"codigo": "0801060014", "nombre": "ANCASCHACA", "categoria": "CASERIO", "departamento": "CUSCO", "provincia": "CUSCO", "distrito": "SANTIAGO", "ubigeo_distrito": "080106", "lat": -13.60970469, "lon": -71.98116233, "altitud": 3790, "poblacion": 190}, {"codigo": "0801060015", "nombre": "QUENCORACCAY", "categoria": "OTROS", "departamento": "CUSCO", "provincia": "CUSCO", "distrito": "SANTIAGO", "ubigeo_distrito": "080106", "lat": -13.57841519, "lon": -71.96201281, "altitud": 3743, "poblacion": 50}, {"codigo": "0801060016", "nombre": "COYLLORPUQUIO", "categoria": "CASERIO", "departamento": "CUSCO", "provincia": "CUSCO", "distrito": "SANTIAGO", "ubigeo_distrito": "080106", "lat": -13.58732161, "lon": -71.94919547, "altitud": 3828, "poblacion": 171}, {"codigo": "0801060017", "nombre": "OCCOPATA", "categoria": "CASERIO", "departamento": "CUSCO", "provincia": "CUSCO", "distrito": "SANTIAGO", "ubigeo_distrito": "080106", "lat": -13.59621169, "lon": -71.9767203, "altitud": 3971, "poblacion": 801}, {"codigo": "0801060018", "nombre": "SELVA", "categoria": "OTROS", "departamento": "CUSCO", "provincia": "CUSCO", "distrito": "SANTIAGO", "ubigeo_distrito": "080106", "lat": -13.60194741, "lon": -71.97587508, "altitud": 4027, "poblacion": 2}, {"codigo": "0801060019", "nombre": "CHURUCALLA GRANDE", "categoria": "OTROS", "departamento": "CUSCO", "provincia": "CUSCO", "distrito": "SANTIAGO", "ubigeo_distrito": "080106", "lat": -13.59845527, "lon": -71.96720919, "altitud": 4052, "poblacion": 12}, {"codigo": "0801060020", "nombre": "CHURUCALLA CHICO", "categoria": "CASERIO", "departamento": "CUSCO", "provincia": "CUSCO", "distrito": "SANTIAGO", "ubigeo_distrito": "080106", "lat": -13.6048701, "lon": -71.9775393, "altitud": 4058, "poblacion": 12}, {"codigo": "0801060027", "nombre": "LECHEMAYO", "categoria": "OTROS", "departamento": "CUSCO", "provincia": "CUSCO", "distrito": "SANTIAGO", "ubigeo_distrito": "080106", "lat": -13.59017426, "lon": -71.96865291, "altitud": 4023, "poblacion": 7}, {"codigo": "0801060029", "nombre": "HUASAMPATA BAJA", "categoria": "OTROS", "departamento": "CUSCO", "provincia": "CUSCO", "distrito": "SANTIAGO", "ubigeo_distrito": "080106", "lat": -13.59153623, "lon": -72.0008065, "altitud": 3978, "poblacion": 38}, {"codigo": "0801060030", "nombre": "WATAPAMPA", "categoria": "", "departamento": "CUSCO", "provincia": "CUSCO", "distrito": "SANTIAGO", "ubigeo_distrito": "080106", "lat": -13.5956164, "lon": -71.97906557, "altitud": 3967, "poblacion": 27}, {"codigo": "0801060031", "nombre": "CHOCCONQUI", "categoria": "", "departamento": "CUSCO", "provincia": "CUSCO", "distrito": "SANTIAGO", "ubigeo_distrito": "080106", "lat": -13.57149245, "lon": -71.99829686, "altitud": 3664, "poblacion": 17}, {"codigo": "0801060032", "nombre": "CAJLLAPATA", "categoria": "", "departamento": "CUSCO", "provincia": "CUSCO", "distrito": "SANTIAGO", "ubigeo_distrito": "080106", "lat": -13.5744131, "lon": -71.9962122, "altitud": 3699, "poblacion": 9}, {"codigo": "0801060033", "nombre": "CACHIMAYO", "categoria": "", "departamento": "CUSCO", "provincia": "CUSCO", "distrito": "SANTIAGO", "ubigeo_distrito": "080106", "lat": -13.57000133, "lon": -71.99608979, "altitud": 3627, "poblacion": 6}, {"codigo": "0801060034", "nombre": "CURCURPAMPA", "categoria": "", "departamento": "CUSCO", "provincia": "CUSCO", "distrito": "SANTIAGO", "ubigeo_distrito": "080106", "lat": -13.57673325, "lon": -71.99763478, "altitud": 3697, "poblacion": 2}, {"codigo": "0801070001", "nombre": "SAYLLA", "categoria": "PUEBLO", "departamento": "CUSCO", "provincia": "CUSCO", "distrito": "SAYLLA", "ubigeo_distrito": "080107", "lat": -13.57005467, "lon": -71.82772141, "altitud": 3179, "poblacion": 2128}, {"codigo": "0801070002", "nombre": "RONDOBAMBA", "categoria": "OTROS", "departamento": "CUSCO", "provincia": "CUSCO", "distrito": "SAYLLA", "ubigeo_distrito": "080107", "lat": -13.54075155, "lon": -71.82415343, "altitud": 3995, "poblacion": 0}, {"codigo": "0801070004", "nombre": "ANGOSTURA ANTIGUA", "categoria": "OTROS", "departamento": "CUSCO", "provincia": "CUSCO", "distrito": "SAYLLA", "ubigeo_distrito": "080107", "lat": -13.56045833, "lon": -71.84605833, "altitud": 3191, "poblacion": 127}, {"codigo": "0801070006", "nombre": "CONDEBAMBILLA", "categoria": "CASERIO", "departamento": "CUSCO", "provincia": "CUSCO", "distrito": "SAYLLA", "ubigeo_distrito": "080107", "lat": -13.565605, "lon": -71.82329833, "altitud": 3168, "poblacion": 436}, {"codigo": "0801070009", "nombre": "CHINGO GRANDE", "categoria": "ANEXO", "departamento": "CUSCO", "provincia": "CUSCO", "distrito": "SAYLLA", "ubigeo_distrito": "080107", "lat": -13.57872, "lon": -71.82085833, "altitud": 3178, "poblacion": 351}, {"codigo": "0801070016", "nombre": "SANTA BARBARA", "categoria": "OTROS", "departamento": "CUSCO", "provincia": "CUSCO", "distrito": "SAYLLA", "ubigeo_distrito": "080107", "lat": -13.570205, "lon": -71.82259, "altitud": 3146, "poblacion": 23}, {"codigo": "0801070018", "nombre": "SURAMA HUAYCO", "categoria": "OTROS", "departamento": "CUSCO", "provincia": "CUSCO", "distrito": "SAYLLA", "ubigeo_distrito": "080107", "lat": -13.55318833, "lon": -71.852625, "altitud": 3267, "poblacion": 2}, {"codigo": "0801070019", "nombre": "AGUAS DEL OLVIDO", "categoria": "OTROS", "departamento": "CUSCO", "provincia": "CUSCO", "distrito": "SAYLLA", "ubigeo_distrito": "080107", "lat": -13.55906833, "lon": -71.85108833, "altitud": 3186, "poblacion": 7}, {"codigo": "0801070020", "nombre": "LA ENCANTADA", "categoria": "OTROS", "departamento": "CUSCO", "provincia": "CUSCO", "distrito": "SAYLLA", "ubigeo_distrito": "080107", "lat": -13.55565998, "lon": -71.85402998, "altitud": 3207, "poblacion": 189}, {"codigo": "0801070021", "nombre": "CONDEBAMBA ALTA-CONDEBAMBA BAJA", "categoria": "OTROS", "departamento": "CUSCO", "provincia": "CUSCO", "distrito": "SAYLLA", "ubigeo_distrito": "080107", "lat": -13.56457202, "lon": -71.83258924, "altitud": 3185, "poblacion": 1182}, {"codigo": "0801070023", "nombre": "SONDOR HUAYCCO", "categoria": "OTROS", "departamento": "CUSCO", "provincia": "CUSCO", "distrito": "SAYLLA", "ubigeo_distrito": "080107", "lat": -13.56260167, "lon": -71.83774667, "altitud": 3191, "poblacion": 5}, {"codigo": "0801070025", "nombre": "SAYWA", "categoria": "OTROS", "departamento": "CUSCO", "provincia": "CUSCO", "distrito": "SAYLLA", "ubigeo_distrito": "080107", "lat": -13.56168333, "lon": -71.84054667, "altitud": 3188, "poblacion": 296}, {"codigo": "0801070026", "nombre": "LOS GIRASOLES", "categoria": "OTROS", "departamento": "CUSCO", "provincia": "CUSCO", "distrito": "SAYLLA", "ubigeo_distrito": "080107", "lat": -13.55701231, "lon": -71.8547415, "altitud": 3206, "poblacion": 53}, {"codigo": "0801070027", "nombre": "EL VALLECITO", "categoria": "OTROS", "departamento": "CUSCO", "provincia": "CUSCO", "distrito": "SAYLLA", "ubigeo_distrito": "080107", "lat": -13.559805, "lon": -71.84374167, "altitud": 3183, "poblacion": 52}, {"codigo": "0801070029", "nombre": "ANAWARQUE", "categoria": "", "departamento": "CUSCO", "provincia": "CUSCO", "distrito": "SAYLLA", "ubigeo_distrito": "080107", "lat": -13.57378213, "lon": -71.82318249, "altitud": 3156, "poblacion": 40}, {"codigo": "0801070030", "nombre": "SOL NACIENTE", "categoria": "", "departamento": "CUSCO", "provincia": "CUSCO", "distrito": "SAYLLA", "ubigeo_distrito": "080107", "lat": -13.55504959, "lon": -71.8607083, "altitud": 3272, "poblacion": 219}, {"codigo": "0801070031", "nombre": "MIRADOR A", "categoria": "", "departamento": "CUSCO", "provincia": "CUSCO", "distrito": "SAYLLA", "ubigeo_distrito": "080107", "lat": -13.55554924, "lon": -71.85723337, "altitud": 3236, "poblacion": 87}, {"codigo": "0801070032", "nombre": "MIRADOR B", "categoria": "", "departamento": "CUSCO", "provincia": "CUSCO", "distrito": "SAYLLA", "ubigeo_distrito": "080107", "lat": -13.55709013, "lon": -71.85634454, "altitud": 3246, "poblacion": 148}, {"codigo": "0801070033", "nombre": "AGUA VIVA LORO PUÑUNA", "categoria": "", "departamento": "CUSCO", "provincia": "CUSCO", "distrito": "SAYLLA", "ubigeo_distrito": "080107", "lat": -13.55388781, "lon": -71.85998382, "altitud": 3202, "poblacion": 0}, {"codigo": "0801070034", "nombre": "WUAYNA CCALLANPATA", "categoria": "", "departamento": "CUSCO", "provincia": "CUSCO", "distrito": "SAYLLA", "ubigeo_distrito": "080107", "lat": -13.5553364, "lon": -71.84041846, "altitud": 3440, "poblacion": 23}, {"codigo": "0801080001", "nombre": "WANCHAQ", "categoria": "CIUDAD", "departamento": "CUSCO", "provincia": "CUSCO", "distrito": "WANCHAQ", "ubigeo_distrito": "080108", "lat": -13.52137238, "lon": -71.96678804, "altitud": 3424, "poblacion": 58541}, {"codigo": "0802010001", "nombre": "ACOMAYO", "categoria": "VILLA", "departamento": "CUSCO", "provincia": "ACOMAYO", "distrito": "ACOMAYO", "ubigeo_distrito": "080201", "lat": -13.91932193, "lon": -71.68369676, "altitud": 3235, "poblacion": 2516}, {"codigo": "0802010002", "nombre": "ANTAPUNCO", "categoria": "OTROS", "departamento": "CUSCO", "provincia": "ACOMAYO", "distrito": "ACOMAYO", "ubigeo_distrito": "080201", "lat": -13.83540167, "lon": -71.71147333, "altitud": 4407, "poblacion": 1}, {"codigo": "0802010004", "nombre": "CHECTTASCCA", "categoria": "OTROS", "departamento": "CUSCO", "provincia": "ACOMAYO", "distrito": "ACOMAYO", "ubigeo_distrito": "080201", "lat": -13.87865922, "lon": -71.70028746, "altitud": 4171, "poblacion": 0}, {"codigo": "0802010005", "nombre": "PUCACCASA", "categoria": "ANEXO", "departamento": "CUSCO", "provincia": "ACOMAYO", "distrito": "ACOMAYO", "ubigeo_distrito": "080201", "lat": -13.83392, "lon": -71.66891167, "altitud": 4236, "poblacion": 11}, {"codigo": "0802010006", "nombre": "CONYAC", "categoria": "OTROS", "departamento": "CUSCO", "provincia": "ACOMAYO", "distrito": "ACOMAYO", "ubigeo_distrito": "080201", "lat": -13.83556167, "lon": -71.652195, "altitud": 4268, "poblacion": 10}, {"codigo": "0802010008", "nombre": "HUAMANRURO", "categoria": "OTROS", "departamento": "CUSCO", "provincia": "ACOMAYO", "distrito": "ACOMAYO", "ubigeo_distrito": "080201", "lat": -13.86722333, "lon": -71.70417, "altitud": 4160, "poblacion": 3}, {"codigo": "0802010009", "nombre": "MANCHAYOC", "categoria": "OTROS", "departamento": "CUSCO", "provincia": "ACOMAYO", "distrito": "ACOMAYO", "ubigeo_distrito": "080201", "lat": -13.86081667, "lon": -71.65334667, "altitud": 4358, "poblacion": 0}, {"codigo": "0802010010", "nombre": "HUADHUA", "categoria": "CAMPAMENTO MINERO", "departamento": "CUSCO", "provincia": "ACOMAYO", "distrito": "ACOMAYO", "ubigeo_distrito": "080201", "lat": -13.86363333, "lon": -71.64906167, "altitud": 4337, "poblacion": 19}, {"codigo": "0802010011", "nombre": "PUICCA", "categoria": "ANEXO", "departamento": "CUSCO", "provincia": "ACOMAYO", "distrito": "ACOMAYO", "ubigeo_distrito": "080201", "lat": -13.85261, "lon": -71.67962167, "altitud": 3904, "poblacion": 68}, {"codigo": "0802010012", "nombre": "TOCURA", "categoria": "ANEXO", "departamento": "CUSCO", "provincia": "ACOMAYO", "distrito": "ACOMAYO", "ubigeo_distrito": "080201", "lat": -13.85150167, "lon": -71.66678333, "altitud": 4001, "poblacion": 10}, {"codigo": "0802010013", "nombre": "ACCHACCALLA", "categoria": "ANEXO", "departamento": "CUSCO", "provincia": "ACOMAYO", "distrito": "ACOMAYO", "ubigeo_distrito": "080201", "lat": -13.86117833, "lon": -71.65136167, "altitud": 4342, "poblacion": 25}, {"codigo": "0802010014", "nombre": "HUARUCUNCA", "categoria": "OTROS", "departamento": "CUSCO", "provincia": "ACOMAYO", "distrito": "ACOMAYO", "ubigeo_distrito": "080201", "lat": -13.86397167, "lon": -71.66630667, "altitud": 4055, "poblacion": 5}, {"codigo": "0802010015", "nombre": "CALLAHUALPA", "categoria": "OTROS", "departamento": "CUSCO", "provincia": "ACOMAYO", "distrito": "ACOMAYO", "ubigeo_distrito": "080201", "lat": -13.86421, "lon": -71.66987167, "altitud": 4042, "poblacion": 0}, {"codigo": "0802010016", "nombre": "CANCHACANCHA", "categoria": "ANEXO", "departamento": "CUSCO", "provincia": "ACOMAYO", "distrito": "ACOMAYO", "ubigeo_distrito": "080201", "lat": -13.859335, "lon": -71.70440833, "altitud": 4049, "poblacion": 17}, {"codigo": "0802010017", "nombre": "LAMPA MARPA", "categoria": "OTROS", "departamento": "CUSCO", "provincia": "ACOMAYO", "distrito": "ACOMAYO", "ubigeo_distrito": "080201", "lat": -13.873105, "lon": -71.66827167, "altitud": 3967, "poblacion": 6}, {"codigo": "0802010018", "nombre": "LLACTAPAMPA", "categoria": "CASERIO", "departamento": "CUSCO", "provincia": "ACOMAYO", "distrito": "ACOMAYO", "ubigeo_distrito": "080201", "lat": -13.86625, "lon": -71.69306333, "altitud": 3870, "poblacion": 113}, {"codigo": "0802010019", "nombre": "LAMPA QUISPILLACTA", "categoria": "OTROS", "departamento": "CUSCO", "provincia": "ACOMAYO", "distrito": "ACOMAYO", "ubigeo_distrito": "080201", "lat": -13.8726, "lon": -71.66539667, "altitud": 3985, "poblacion": 8}, {"codigo": "0802010020", "nombre": "TUCUMARCA", "categoria": "OTROS", "departamento": "CUSCO", "provincia": "ACOMAYO", "distrito": "ACOMAYO", "ubigeo_distrito": "080201", "lat": -13.89239667, "lon": -71.67279, "altitud": 3964, "poblacion": 23}, {"codigo": "0802010021", "nombre": "HAYTOR", "categoria": "OTROS", "departamento": "CUSCO", "provincia": "ACOMAYO", "distrito": "ACOMAYO", "ubigeo_distrito": "080201", "lat": -13.87426833, "lon": -71.700615, "altitud": 4168, "poblacion": 0}, {"codigo": "0802010022", "nombre": "CCOLLPA", "categoria": "OTROS", "departamento": "CUSCO", "provincia": "ACOMAYO", "distrito": "ACOMAYO", "ubigeo_distrito": "080201", "lat": -13.89232833, "lon": -71.66487167, "altitud": 3745, "poblacion": 43}, {"codigo": "0802010024", "nombre": "OCCURURO", "categoria": "OTROS", "departamento": "CUSCO", "provincia": "ACOMAYO", "distrito": "ACOMAYO", "ubigeo_distrito": "080201", "lat": -13.89381333, "lon": -71.66719667, "altitud": 3744, "poblacion": 3}, {"codigo": "0802010025", "nombre": "ACCHA ACCHA", "categoria": "CASERIO", "departamento": "CUSCO", "provincia": "ACOMAYO", "distrito": "ACOMAYO", "ubigeo_distrito": "080201", "lat": -13.90724, "lon": -71.64613167, "altitud": 3967, "poblacion": 124}, {"codigo": "0802010029", "nombre": "ALTO CHACA", "categoria": "CASERIO", "departamento": "CUSCO", "provincia": "ACOMAYO", "distrito": "ACOMAYO", "ubigeo_distrito": "080201", "lat": -13.91771998, "lon": -71.67612998, "altitud": 3471, "poblacion": 25}, {"codigo": "0802010030", "nombre": "RUMICHACA", "categoria": "OTROS", "departamento": "CUSCO", "provincia": "ACOMAYO", "distrito": "ACOMAYO", "ubigeo_distrito": "080201", "lat": -13.92378, "lon": -71.68739167, "altitud": 3214, "poblacion": 3}, {"codigo": "0802010031", "nombre": "LLANSA PACHACA", "categoria": "OTROS", "departamento": "CUSCO", "provincia": "ACOMAYO", "distrito": "ACOMAYO", "ubigeo_distrito": "080201", "lat": -13.92895167, "lon": -71.66897333, "altitud": 3367, "poblacion": 75}, {"codigo": "0802010032", "nombre": "MANZANA PATA", "categoria": "CASERIO", "departamento": "CUSCO", "provincia": "ACOMAYO", "distrito": "ACOMAYO", "ubigeo_distrito": "080201", "lat": -13.92608333, "lon": -71.67455333, "altitud": 3278, "poblacion": 19}, {"codigo": "0802010034", "nombre": "LLANQUEPAMPA", "categoria": "OTROS", "departamento": "CUSCO", "provincia": "ACOMAYO", "distrito": "ACOMAYO", "ubigeo_distrito": "080201", "lat": -13.92387167, "lon": -71.67303, "altitud": 3260, "poblacion": 1}, {"codigo": "0802010036", "nombre": "PATRIMANA", "categoria": "OTROS", "departamento": "CUSCO", "provincia": "ACOMAYO", "distrito": "ACOMAYO", "ubigeo_distrito": "080201", "lat": -13.92573048, "lon": -71.65946098, "altitud": 3522, "poblacion": 2}, {"codigo": "0802010037", "nombre": "HUASCAR CENTRO", "categoria": "CASERIO", "departamento": "CUSCO", "provincia": "ACOMAYO", "distrito": "ACOMAYO", "ubigeo_distrito": "080201", "lat": -13.94529167, "lon": -71.68167, "altitud": 3652, "poblacion": 108}, {"codigo": "0802010038", "nombre": "CAPILLA MOCCO", "categoria": "OTROS", "departamento": "CUSCO", "provincia": "ACOMAYO", "distrito": "ACOMAYO", "ubigeo_distrito": "080201", "lat": -13.92505667, "lon": -71.68875667, "altitud": 3208, "poblacion": 2}, {"codigo": "0802010039", "nombre": "CAPILLA SIQUI", "categoria": "OTROS", "departamento": "CUSCO", "provincia": "ACOMAYO", "distrito": "ACOMAYO", "ubigeo_distrito": "080201", "lat": -13.92881333, "lon": -71.69058667, "altitud": 3216, "poblacion": 0}, {"codigo": "0802010040", "nombre": "NINABAMBA", "categoria": "OTROS", "departamento": "CUSCO", "provincia": "ACOMAYO", "distrito": "ACOMAYO", "ubigeo_distrito": "080201", "lat": -13.93009667, "lon": -71.69156833, "altitud": 3203, "poblacion": 6}, {"codigo": "0802010041", "nombre": "CACHICANA", "categoria": "OTROS", "departamento": "CUSCO", "provincia": "ACOMAYO", "distrito": "ACOMAYO", "ubigeo_distrito": "080201", "lat": -13.92720667, "lon": -71.68581, "altitud": 3285, "poblacion": 7}, {"codigo": "0802010042", "nombre": "CARPAPAMPA", "categoria": "OTROS", "departamento": "CUSCO", "provincia": "ACOMAYO", "distrito": "ACOMAYO", "ubigeo_distrito": "080201", "lat": -13.93414333, "lon": -71.69374833, "altitud": 3227, "poblacion": 2}, {"codigo": "0802010043", "nombre": "SAN GABRIEL", "categoria": "OTROS", "departamento": "CUSCO", "provincia": "ACOMAYO", "distrito": "ACOMAYO", "ubigeo_distrito": "080201", "lat": -13.931893, "lon": -71.682999, "altitud": 3375, "poblacion": 26}, {"codigo": "0802010044", "nombre": "CABRERA ALTA", "categoria": "OTROS", "departamento": "CUSCO", "provincia": "ACOMAYO", "distrito": "ACOMAYO", "ubigeo_distrito": "080201", "lat": -13.925075, "lon": -71.68475, "altitud": 3293, "poblacion": 0}, {"codigo": "0802010047", "nombre": "JUNTUPUJIO", "categoria": "OTROS", "departamento": "CUSCO", "provincia": "ACOMAYO", "distrito": "ACOMAYO", "ubigeo_distrito": "080201", "lat": -13.93129833, "lon": -71.66324833, "altitud": 3362, "poblacion": 20}, {"codigo": "0802010048", "nombre": "LAMBRAMPATA", "categoria": "OTROS", "departamento": "CUSCO", "provincia": "ACOMAYO", "distrito": "ACOMAYO", "ubigeo_distrito": "080201", "lat": -13.93884667, "lon": -71.68838833, "altitud": 3435, "poblacion": 5}, {"codigo": "0802010049", "nombre": "HUAYLLABAMBA", "categoria": "OTROS", "departamento": "CUSCO", "provincia": "ACOMAYO", "distrito": "ACOMAYO", "ubigeo_distrito": "080201", "lat": -13.94099998, "lon": -71.68499998, "altitud": 3500, "poblacion": 5}, {"codigo": "0802010050", "nombre": "CCOPAR", "categoria": "OTROS", "departamento": "CUSCO", "provincia": "ACOMAYO", "distrito": "ACOMAYO", "ubigeo_distrito": "080201", "lat": -13.93565, "lon": -71.698335, "altitud": 3161, "poblacion": 24}, {"codigo": "0802010051", "nombre": "SIMPHI", "categoria": "OTROS", "departamento": "CUSCO", "provincia": "ACOMAYO", "distrito": "ACOMAYO", "ubigeo_distrito": "080201", "lat": -13.93876998, "lon": -71.70156998, "altitud": 3193, "poblacion": 16}, {"codigo": "0802010054", "nombre": "PITUMARCA - MOSOLLACTA", "categoria": "CASERIO", "departamento": "CUSCO", "provincia": "ACOMAYO", "distrito": "ACOMAYO", "ubigeo_distrito": "080201", "lat": -13.94820377, "lon": -71.64204163, "altitud": 3842, "poblacion": 385}, {"codigo": "0802010057", "nombre": "CABRA CANCHA", "categoria": "CASERIO", "departamento": "CUSCO", "provincia": "ACOMAYO", "distrito": "ACOMAYO", "ubigeo_distrito": "080201", "lat": -13.94039667, "lon": -71.64130167, "altitud": 3690, "poblacion": 19}, {"codigo": "0802010059", "nombre": "ACCOCUNCA", "categoria": "OTROS", "departamento": "CUSCO", "provincia": "ACOMAYO", "distrito": "ACOMAYO", "ubigeo_distrito": "080201", "lat": -13.96143998, "lon": -71.63726998, "altitud": 3993, "poblacion": 2}, {"codigo": "0802010060", "nombre": "INCASALTANA", "categoria": "OTROS", "departamento": "CUSCO", "provincia": "ACOMAYO", "distrito": "ACOMAYO", "ubigeo_distrito": "080201", "lat": -13.86599, "lon": -71.63694, "altitud": 4273, "poblacion": 41}, {"codigo": "0802010061", "nombre": "CANCHAHUIQQUI", "categoria": "OTROS", "departamento": "CUSCO", "provincia": "ACOMAYO", "distrito": "ACOMAYO", "ubigeo_distrito": "080201", "lat": -13.84121, "lon": -71.69663167, "altitud": 4460, "poblacion": 4}, {"codigo": "0802010062", "nombre": "PATAULLA", "categoria": "OTROS", "departamento": "CUSCO", "provincia": "ACOMAYO", "distrito": "ACOMAYO", "ubigeo_distrito": "080201", "lat": -13.85337167, "lon": -71.694485, "altitud": 4263, "poblacion": 0}, {"codigo": "0802010063", "nombre": "ANTACALLA", "categoria": "OTROS", "departamento": "CUSCO", "provincia": "ACOMAYO", "distrito": "ACOMAYO", "ubigeo_distrito": "080201", "lat": -13.88683, "lon": -71.68743, "altitud": 3644, "poblacion": 2}, {"codigo": "0802010064", "nombre": "TACCASI", "categoria": "OTROS", "departamento": "CUSCO", "provincia": "ACOMAYO", "distrito": "ACOMAYO", "ubigeo_distrito": "080201", "lat": -13.92633333, "lon": -71.66664667, "altitud": 3316, "poblacion": 85}, {"codigo": "0802010065", "nombre": "CACHIPAMPA", "categoria": "OTROS", "departamento": "CUSCO", "provincia": "ACOMAYO", "distrito": "ACOMAYO", "ubigeo_distrito": "080201", "lat": -13.90530333, "lon": -71.65130833, "altitud": 3791, "poblacion": 9}, {"codigo": "0802010067", "nombre": "SANTIAGO", "categoria": "CASERIO", "departamento": "CUSCO", "provincia": "ACOMAYO", "distrito": "ACOMAYO", "ubigeo_distrito": "080201", "lat": -13.94724895, "lon": -71.68294367, "altitud": 3650, "poblacion": 225}, {"codigo": "0802010068", "nombre": "ONURAQUI ALTO", "categoria": "CASERIO", "departamento": "CUSCO", "provincia": "ACOMAYO", "distrito": "ACOMAYO", "ubigeo_distrito": "080201", "lat": -13.94909, "lon": -71.683, "altitud": 3676, "poblacion": 238}, {"codigo": "0802010070", "nombre": "INCHISMOCCO", "categoria": "OTROS", "departamento": "CUSCO", "provincia": "ACOMAYO", "distrito": "ACOMAYO", "ubigeo_distrito": "080201", "lat": -13.92646333, "lon": -71.67688333, "altitud": 3274, "poblacion": 8}, {"codigo": "0802010071", "nombre": "HUALLHUAYOC", "categoria": "OTROS", "departamento": "CUSCO", "provincia": "ACOMAYO", "distrito": "ACOMAYO", "ubigeo_distrito": "080201", "lat": -13.92985333, "lon": -71.68079167, "altitud": 3383, "poblacion": 9}, {"codigo": "0802010073", "nombre": "MATAYBAMBA", "categoria": "OTROS", "departamento": "CUSCO", "provincia": "ACOMAYO", "distrito": "ACOMAYO", "ubigeo_distrito": "080201", "lat": -13.93067, "lon": -71.68308833, "altitud": 3368, "poblacion": 0}, {"codigo": "0802010074", "nombre": "CHILLCAPATA", "categoria": "OTROS", "departamento": "CUSCO", "provincia": "ACOMAYO", "distrito": "ACOMAYO", "ubigeo_distrito": "080201", "lat": -13.93521, "lon": -71.68114167, "altitud": 3488, "poblacion": 5}, {"codigo": "0802010075", "nombre": "KIRUYRA", "categoria": "OTROS", "departamento": "CUSCO", "provincia": "ACOMAYO", "distrito": "ACOMAYO", "ubigeo_distrito": "080201", "lat": -13.85960877, "lon": -71.7009169, "altitud": 3988, "poblacion": 0}, {"codigo": "0802010076", "nombre": "SUMPICHO", "categoria": "OTROS", "departamento": "CUSCO", "provincia": "ACOMAYO", "distrito": "ACOMAYO", "ubigeo_distrito": "080201", "lat": -13.86313667, "lon": -71.70056833, "altitud": 4008, "poblacion": 7}, {"codigo": "0802010077", "nombre": "PARKAN PAMPA", "categoria": "OTROS", "departamento": "CUSCO", "provincia": "ACOMAYO", "distrito": "ACOMAYO", "ubigeo_distrito": "080201", "lat": -13.86083538, "lon": -71.70169436, "altitud": 3987, "poblacion": 0}, {"codigo": "0802010078", "nombre": "ISCAYCANCHA", "categoria": "OTROS", "departamento": "CUSCO", "provincia": "ACOMAYO", "distrito": "ACOMAYO", "ubigeo_distrito": "080201", "lat": -13.87104833, "lon": -71.70184333, "altitud": 4180, "poblacion": 0}, {"codigo": "0802010079", "nombre": "HUASICHANA", "categoria": "OTROS", "departamento": "CUSCO", "provincia": "ACOMAYO", "distrito": "ACOMAYO", "ubigeo_distrito": "080201", "lat": -13.83883667, "lon": -71.69955167, "altitud": 4459, "poblacion": 0}, {"codigo": "0802010080", "nombre": "CALLANCA", "categoria": "OTROS", "departamento": "CUSCO", "provincia": "ACOMAYO", "distrito": "ACOMAYO", "ubigeo_distrito": "080201", "lat": -13.853065, "lon": -71.709855, "altitud": 4153, "poblacion": 2}, {"codigo": "0802010081", "nombre": "SUNTU AYLLU", "categoria": "OTROS", "departamento": "CUSCO", "provincia": "ACOMAYO", "distrito": "ACOMAYO", "ubigeo_distrito": "080201", "lat": -13.86457833, "lon": -71.70453833, "altitud": 4154, "poblacion": 0}, {"codigo": "0802010082", "nombre": "ESCUCUSANA", "categoria": "OTROS", "departamento": "CUSCO", "provincia": "ACOMAYO", "distrito": "ACOMAYO", "ubigeo_distrito": "080201", "lat": -13.85736833, "lon": -71.709125, "altitud": 4165, "poblacion": 0}, {"codigo": "0802010083", "nombre": "MICCAY", "categoria": "OTROS", "departamento": "CUSCO", "provincia": "ACOMAYO", "distrito": "ACOMAYO", "ubigeo_distrito": "080201", "lat": -13.839075, "lon": -71.71257, "altitud": 4318, "poblacion": 2}, {"codigo": "0802010084", "nombre": "PUKAPUKA", "categoria": "OTROS", "departamento": "CUSCO", "provincia": "ACOMAYO", "distrito": "ACOMAYO", "ubigeo_distrito": "080201", "lat": -13.86449167, "lon": -71.69966333, "altitud": 3981, "poblacion": 0}, {"codigo": "0802010085", "nombre": "PICCHU", "categoria": "OTROS", "departamento": "CUSCO", "provincia": "ACOMAYO", "distrito": "ACOMAYO", "ubigeo_distrito": "080201", "lat": -13.87016, "lon": -71.65601833, "altitud": 4299, "poblacion": 0}, {"codigo": "0802010086", "nombre": "QAYQU", "categoria": "OTROS", "departamento": "CUSCO", "provincia": "ACOMAYO", "distrito": "ACOMAYO", "ubigeo_distrito": "080201", "lat": -13.84112333, "lon": -71.64645167, "altitud": 4345, "poblacion": 8}, {"codigo": "0802010087", "nombre": "CHORRILLOS", "categoria": "OTROS", "departamento": "CUSCO", "provincia": "ACOMAYO", "distrito": "ACOMAYO", "ubigeo_distrito": "080201", "lat": -13.92369333, "lon": -71.66809167, "altitud": 3333, "poblacion": 71}, {"codigo": "0802010089", "nombre": "CHALLACHAICO", "categoria": "OTROS", "departamento": "CUSCO", "provincia": "ACOMAYO", "distrito": "ACOMAYO", "ubigeo_distrito": "080201", "lat": -13.89947667, "lon": -71.69149333, "altitud": 3514, "poblacion": 2}, {"codigo": "0802010090", "nombre": "SAN PEDRO", "categoria": "OTROS", "departamento": "CUSCO", "provincia": "ACOMAYO", "distrito": "ACOMAYO", "ubigeo_distrito": "080201", "lat": -13.934135, "lon": -71.686725, "altitud": 3359, "poblacion": 0}, {"codigo": "0802010091", "nombre": "SANTIAGO", "categoria": "", "departamento": "CUSCO", "provincia": "ACOMAYO", "distrito": "ACOMAYO", "ubigeo_distrito": "080201", "lat": -13.92554333, "lon": -71.68304, "altitud": 3315, "poblacion": 0}, {"codigo": "0802010092", "nombre": "HUISA CUNKA", "categoria": "", "departamento": "CUSCO", "provincia": "ACOMAYO", "distrito": "ACOMAYO", "ubigeo_distrito": "080201", "lat": -13.83415408, "lon": -71.69736323, "altitud": 4435, "poblacion": 4}, {"codigo": "0802010093", "nombre": "VISTA HERMOSA", "categoria": "", "departamento": "CUSCO", "provincia": "ACOMAYO", "distrito": "ACOMAYO", "ubigeo_distrito": "080201", "lat": -13.93104028, "lon": -71.67198985, "altitud": 3433, "poblacion": 1}, {"codigo": "0802010094", "nombre": "MUNAYPATA", "categoria": "", "departamento": "CUSCO", "provincia": "ACOMAYO", "distrito": "ACOMAYO", "ubigeo_distrito": "080201", "lat": -13.93637169, "lon": -71.69008004, "altitud": 3298, "poblacion": 52}, {"codigo": "0802020001", "nombre": "ACOPIA", "categoria": "PUEBLO", "departamento": "CUSCO", "provincia": "ACOMAYO", "distrito": "ACOPIA", "ubigeo_distrito": "080202", "lat": -14.05749583, "lon": -71.49322189, "altitud": 3724, "poblacion": 1440}, {"codigo": "0802020002", "nombre": "HUAYRACHAPI", "categoria": "ANEXO", "departamento": "CUSCO", "provincia": "ACOMAYO", "distrito": "ACOPIA", "ubigeo_distrito": "080202", "lat": -14.02986833, "lon": -71.49782667, "altitud": 3703, "poblacion": 118}, {"codigo": "0802020003", "nombre": "MISKIUNO", "categoria": "ANEXO", "departamento": "CUSCO", "provincia": "ACOMAYO", "distrito": "ACOPIA", "ubigeo_distrito": "080202", "lat": -14.04515667, "lon": -71.4856, "altitud": 3830, "poblacion": 105}, {"codigo": "0802020005", "nombre": "SANTO DOMINGO", "categoria": "CASERIO", "departamento": "CUSCO", "provincia": "ACOMAYO", "distrito": "ACOPIA", "ubigeo_distrito": "080202", "lat": -14.0866, "lon": -71.50125833, "altitud": 3766, "poblacion": 345}, {"codigo": "0802020006", "nombre": "HUARASAYCO", "categoria": "ANEXO", "departamento": "CUSCO", "provincia": "ACOMAYO", "distrito": "ACOPIA", "ubigeo_distrito": "080202", "lat": -14.09512833, "lon": -71.51398833, "altitud": 3828, "poblacion": 147}, {"codigo": "0802020007", "nombre": "PILLITINA", "categoria": "", "departamento": "CUSCO", "provincia": "ACOMAYO", "distrito": "ACOPIA", "ubigeo_distrito": "080202", "lat": -14.08868833, "lon": -71.50391333, "altitud": 3766, "poblacion": 113}, {"codigo": "0802020008", "nombre": "TACTABAMBA", "categoria": "", "departamento": "CUSCO", "provincia": "ACOMAYO", "distrito": "ACOPIA", "ubigeo_distrito": "080202", "lat": -14.07723378, "lon": -71.47189329, "altitud": 3449, "poblacion": 371}, {"codigo": "0802020009", "nombre": "BELLAVISTA", "categoria": "", "departamento": "CUSCO", "provincia": "ACOMAYO", "distrito": "ACOPIA", "ubigeo_distrito": "080202", "lat": -14.06125952, "lon": -71.49613374, "altitud": 3732, "poblacion": 11}, {"codigo": "0802030001", "nombre": "ACOS", "categoria": "PUEBLO", "departamento": "CUSCO", "provincia": "ACOMAYO", "distrito": "ACOS", "ubigeo_distrito": "080203", "lat": -13.95100696, "lon": -71.73797318, "altitud": 3106, "poblacion": 793}, {"codigo": "0802030002", "nombre": "CCOYROCCOCHA", "categoria": "OTROS", "departamento": "CUSCO", "provincia": "ACOMAYO", "distrito": "ACOS", "ubigeo_distrito": "080203", "lat": -13.86616167, "lon": -71.743545, "altitud": 4089, "poblacion": 0}, {"codigo": "0802030004", "nombre": "LLOCLLA", "categoria": "OTROS", "departamento": "CUSCO", "provincia": "ACOMAYO", "distrito": "ACOS", "ubigeo_distrito": "080203", "lat": -13.864845, "lon": -71.76744167, "altitud": 3262, "poblacion": 3}, {"codigo": "0802030007", "nombre": "CORMA", "categoria": "CASERIO", "departamento": "CUSCO", "provincia": "ACOMAYO", "distrito": "ACOS", "ubigeo_distrito": "080203", "lat": -13.88536373, "lon": -71.75396786, "altitud": 3885, "poblacion": 330}, {"codigo": "0802030008", "nombre": "AÑUBAMBA", "categoria": "OTROS", "departamento": "CUSCO", "provincia": "ACOMAYO", "distrito": "ACOS", "ubigeo_distrito": "080203", "lat": -13.87497833, "lon": -71.73079792, "altitud": 4358, "poblacion": 0}, {"codigo": "0802030009", "nombre": "FINAYPAMPA", "categoria": "OTROS", "departamento": "CUSCO", "provincia": "ACOMAYO", "distrito": "ACOS", "ubigeo_distrito": "080203", "lat": -13.897055, "lon": -71.73213167, "altitud": 3961, "poblacion": 0}, {"codigo": "0802030010", "nombre": "CHALANIA", "categoria": "CASERIO", "departamento": "CUSCO", "provincia": "ACOMAYO", "distrito": "ACOS", "ubigeo_distrito": "080203", "lat": -13.89304726, "lon": -71.72207078, "altitud": 3943, "poblacion": 49}, {"codigo": "0802030011", "nombre": "MATTY", "categoria": "OTROS", "departamento": "CUSCO", "provincia": "ACOMAYO", "distrito": "ACOS", "ubigeo_distrito": "080203", "lat": -13.89467547, "lon": -71.71920401, "altitud": 3952, "poblacion": 29}, {"codigo": "0802030012", "nombre": "HUAMANRURO", "categoria": "CASERIO", "departamento": "CUSCO", "provincia": "ACOMAYO", "distrito": "ACOS", "ubigeo_distrito": "080203", "lat": -13.90141316, "lon": -71.71630325, "altitud": 3880, "poblacion": 79}, {"codigo": "0802030013", "nombre": "CCOCHAPATA", "categoria": "ANEXO", "departamento": "CUSCO", "provincia": "ACOMAYO", "distrito": "ACOS", "ubigeo_distrito": "080203", "lat": -13.89582784, "lon": -71.7177843, "altitud": 3815, "poblacion": 93}, {"codigo": "0802030014", "nombre": "CHILLCAPATA", "categoria": "CASERIO", "departamento": "CUSCO", "provincia": "ACOMAYO", "distrito": "ACOS", "ubigeo_distrito": "080203", "lat": -13.90483048, "lon": -71.71183079, "altitud": 3759, "poblacion": 7}, {"codigo": "0802030015", "nombre": "ACCOPUNCO", "categoria": "CASERIO", "departamento": "CUSCO", "provincia": "ACOMAYO", "distrito": "ACOS", "ubigeo_distrito": "080203", "lat": -13.90725401, "lon": -71.70981707, "altitud": 3762, "poblacion": 57}, {"codigo": "0802030016", "nombre": "TOCCORAY", "categoria": "OTROS", "departamento": "CUSCO", "provincia": "ACOMAYO", "distrito": "ACOS", "ubigeo_distrito": "080203", "lat": -13.89858837, "lon": -71.71711264, "altitud": 3851, "poblacion": 4}, {"codigo": "0802030018", "nombre": "CULLUPATA", "categoria": "OTROS", "departamento": "CUSCO", "provincia": "ACOMAYO", "distrito": "ACOS", "ubigeo_distrito": "080203", "lat": -13.90920179, "lon": -71.7101486, "altitud": 3560, "poblacion": 5}, {"codigo": "0802030019", "nombre": "UNCACCAPA", "categoria": "OTROS", "departamento": "CUSCO", "provincia": "ACOMAYO", "distrito": "ACOS", "ubigeo_distrito": "080203", "lat": -13.92019333, "lon": -71.77532167, "altitud": 676, "poblacion": 1}, {"codigo": "0802030020", "nombre": "PUCHI", "categoria": "OTROS", "departamento": "CUSCO", "provincia": "ACOMAYO", "distrito": "ACOS", "ubigeo_distrito": "080203", "lat": -13.91877833, "lon": -71.72414667, "altitud": 3730, "poblacion": 0}, {"codigo": "0802030021", "nombre": "CCARCCOBAMBA", "categoria": "ANEXO", "departamento": "CUSCO", "provincia": "ACOMAYO", "distrito": "ACOS", "ubigeo_distrito": "080203", "lat": -13.93058667, "lon": -71.71312, "altitud": 3409, "poblacion": 21}, {"codigo": "0802030022", "nombre": "YUTO", "categoria": "OTROS", "departamento": "CUSCO", "provincia": "ACOMAYO", "distrito": "ACOS", "ubigeo_distrito": "080203", "lat": -13.936895, "lon": -71.73816833, "altitud": 3361, "poblacion": 2}, {"codigo": "0802030023", "nombre": "QUEPOCCOCHA", "categoria": "OTROS", "departamento": "CUSCO", "provincia": "ACOMAYO", "distrito": "ACOS", "ubigeo_distrito": "080203", "lat": -13.94385333, "lon": -71.766205, "altitud": 2913, "poblacion": 1}, {"codigo": "0802030025", "nombre": "SIMPPI", "categoria": "OTROS", "departamento": "CUSCO", "provincia": "ACOMAYO", "distrito": "ACOS", "ubigeo_distrito": "080203", "lat": -13.941895, "lon": -71.70375333, "altitud": 3128, "poblacion": 46}, {"codigo": "0802030026", "nombre": "TOCCOCCACA", "categoria": "OTROS", "departamento": "CUSCO", "provincia": "ACOMAYO", "distrito": "ACOS", "ubigeo_distrito": "080203", "lat": -13.93932333, "lon": -71.71579333, "altitud": 3100, "poblacion": 0}, {"codigo": "0802030027", "nombre": "CHACCO", "categoria": "OTROS", "departamento": "CUSCO", "provincia": "ACOMAYO", "distrito": "ACOS", "ubigeo_distrito": "080203", "lat": -13.94373167, "lon": -71.71926667, "altitud": 3007, "poblacion": 66}, {"codigo": "0802030028", "nombre": "MAYUHUILLCA", "categoria": "ANEXO", "departamento": "CUSCO", "provincia": "ACOMAYO", "distrito": "ACOS", "ubigeo_distrito": "080203", "lat": -13.95332167, "lon": -71.75312, "altitud": 2875, "poblacion": 27}, {"codigo": "0802030029", "nombre": "ANGOSTURA", "categoria": "OTROS", "departamento": "CUSCO", "provincia": "ACOMAYO", "distrito": "ACOS", "ubigeo_distrito": "080203", "lat": -13.94996167, "lon": -71.72703167, "altitud": 3008, "poblacion": 0}, {"codigo": "0802030030", "nombre": "LLAPAYPATA", "categoria": "ANEXO", "departamento": "CUSCO", "provincia": "ACOMAYO", "distrito": "ACOS", "ubigeo_distrito": "080203", "lat": -13.971155, "lon": -71.715415, "altitud": 3513, "poblacion": 79}, {"codigo": "0802030031", "nombre": "SAPOPAMPA", "categoria": "OTROS", "departamento": "CUSCO", "provincia": "ACOMAYO", "distrito": "ACOS", "ubigeo_distrito": "080203", "lat": -13.98161333, "lon": -71.720685, "altitud": 3305, "poblacion": 9}, {"codigo": "0802030032", "nombre": "CAMPI", "categoria": "ANEXO", "departamento": "CUSCO", "provincia": "ACOMAYO", "distrito": "ACOS", "ubigeo_distrito": "080203", "lat": -13.97831833, "lon": -71.70634333, "altitud": 3619, "poblacion": 217}, {"codigo": "0802030033", "nombre": "ORCON HUA LLA", "categoria": "OTROS", "departamento": "CUSCO", "provincia": "ACOMAYO", "distrito": "ACOS", "ubigeo_distrito": "080203", "lat": -13.97126333, "lon": -71.712525, "altitud": 3556, "poblacion": 3}, {"codigo": "0802030035", "nombre": "YANAMANCHA", "categoria": "OTROS", "departamento": "CUSCO", "provincia": "ACOMAYO", "distrito": "ACOS", "ubigeo_distrito": "080203", "lat": -13.98691333, "lon": -71.70725, "altitud": 3560, "poblacion": 0}, {"codigo": "0802030036", "nombre": "HUAYQUI", "categoria": "CASERIO", "departamento": "CUSCO", "provincia": "ACOMAYO", "distrito": "ACOS", "ubigeo_distrito": "080203", "lat": -13.99442079, "lon": -71.71493164, "altitud": 3405, "poblacion": 234}, {"codigo": "0802030037", "nombre": "PIRUBAMBA", "categoria": "OTROS", "departamento": "CUSCO", "provincia": "ACOMAYO", "distrito": "ACOS", "ubigeo_distrito": "080203", "lat": -14.011468, "lon": -71.717625, "altitud": 3230, "poblacion": 0}, {"codigo": "0802030038", "nombre": "PACLLA", "categoria": "OTROS", "departamento": "CUSCO", "provincia": "ACOMAYO", "distrito": "ACOS", "ubigeo_distrito": "080203", "lat": -14.00134333, "lon": -71.68337, "altitud": 4220, "poblacion": 1}, {"codigo": "0802030039", "nombre": "RACCHE", "categoria": "OTROS", "departamento": "CUSCO", "provincia": "ACOMAYO", "distrito": "ACOS", "ubigeo_distrito": "080203", "lat": -14.00885167, "lon": -71.72039167, "altitud": 3136, "poblacion": 0}, {"codigo": "0802030040", "nombre": "CHAUPI PILLO", "categoria": "OTROS", "departamento": "CUSCO", "provincia": "ACOMAYO", "distrito": "ACOS", "ubigeo_distrito": "080203", "lat": -14.00284333, "lon": -71.698425, "altitud": 4201, "poblacion": 0}, {"codigo": "0802030041", "nombre": "KCOTAÑA", "categoria": "OTROS", "departamento": "CUSCO", "provincia": "ACOMAYO", "distrito": "ACOS", "ubigeo_distrito": "080203", "lat": -14.01460833, "lon": -71.68088167, "altitud": 4235, "poblacion": 0}, {"codigo": "0802030042", "nombre": "QUIMSA PUQUIO", "categoria": "ANEXO", "departamento": "CUSCO", "provincia": "ACOMAYO", "distrito": "ACOS", "ubigeo_distrito": "080203", "lat": -14.01849, "lon": -71.68584833, "altitud": 4210, "poblacion": 0}, {"codigo": "0802030043", "nombre": "PERCCA", "categoria": "ANEXO", "departamento": "CUSCO", "provincia": "ACOMAYO", "distrito": "ACOS", "ubigeo_distrito": "080203", "lat": -14.02162667, "lon": -71.70907167, "altitud": 3655, "poblacion": 22}, {"codigo": "0802030045", "nombre": "KENTERJATA", "categoria": "OTROS", "departamento": "CUSCO", "provincia": "ACOMAYO", "distrito": "ACOS", "ubigeo_distrito": "080203", "lat": -13.97624, "lon": -71.70457833, "altitud": 3670, "poblacion": 0}, {"codigo": "0802030048", "nombre": "KENTER PATA", "categoria": "OTROS", "departamento": "CUSCO", "provincia": "ACOMAYO", "distrito": "ACOS", "ubigeo_distrito": "080203", "lat": -13.97742333, "lon": -71.704095, "altitud": 3688, "poblacion": 0}, {"codigo": "0802030049", "nombre": "PUCARA", "categoria": "OTROS", "departamento": "CUSCO", "provincia": "ACOMAYO", "distrito": "ACOS", "ubigeo_distrito": "080203", "lat": -13.98021167, "lon": -71.70979667, "altitud": 3543, "poblacion": 17}, {"codigo": "0802030050", "nombre": "KOTANKARAY", "categoria": "OTROS", "departamento": "CUSCO", "provincia": "ACOMAYO", "distrito": "ACOS", "ubigeo_distrito": "080203", "lat": -13.98331333, "lon": -71.703585, "altitud": 3713, "poblacion": 2}, {"codigo": "0802030053", "nombre": "OPIN", "categoria": "OTROS", "departamento": "CUSCO", "provincia": "ACOMAYO", "distrito": "ACOS", "ubigeo_distrito": "080203", "lat": -13.94152, "lon": -71.77007833, "altitud": 2869, "poblacion": 5}, {"codigo": "0802030054", "nombre": "HUAYLLACHURA", "categoria": "OTROS", "departamento": "CUSCO", "provincia": "ACOMAYO", "distrito": "ACOS", "ubigeo_distrito": "080203", "lat": -13.90328851, "lon": -71.71406569, "altitud": 3815, "poblacion": 0}, {"codigo": "0802030055", "nombre": "HUAYNAPATA", "categoria": "OTROS", "departamento": "CUSCO", "provincia": "ACOMAYO", "distrito": "ACOS", "ubigeo_distrito": "080203", "lat": -13.86727, "lon": -71.76413667, "altitud": 3473, "poblacion": 0}, {"codigo": "0802030056", "nombre": "CHUCO", "categoria": "OTROS", "departamento": "CUSCO", "provincia": "ACOMAYO", "distrito": "ACOS", "ubigeo_distrito": "080203", "lat": -13.91300371, "lon": -71.70856994, "altitud": 3702, "poblacion": 4}, {"codigo": "0802030057", "nombre": "CRANO PAMPA", "categoria": "OTROS", "departamento": "CUSCO", "provincia": "ACOMAYO", "distrito": "ACOS", "ubigeo_distrito": "080203", "lat": -13.87735275, "lon": -71.72953796, "altitud": 4141, "poblacion": 0}, {"codigo": "0802030058", "nombre": "SAPOPAMPA", "categoria": "OTROS", "departamento": "CUSCO", "provincia": "ACOMAYO", "distrito": "ACOS", "ubigeo_distrito": "080203", "lat": -13.85864667, "lon": -71.76030667, "altitud": 3503, "poblacion": 0}, {"codigo": "0802030060", "nombre": "PACCOBAMBAPATA", "categoria": "", "departamento": "CUSCO", "provincia": "ACOMAYO", "distrito": "ACOS", "ubigeo_distrito": "080203", "lat": -13.89594167, "lon": -71.72450333, "altitud": 3984, "poblacion": 0}, {"codigo": "0802030061", "nombre": "IBUNGURA", "categoria": "", "departamento": "CUSCO", "provincia": "ACOMAYO", "distrito": "ACOS", "ubigeo_distrito": "080203", "lat": -13.98568167, "lon": -71.71421833, "altitud": 3352, "poblacion": 0}, {"codigo": "0802030062", "nombre": "CANCHAPATA", "categoria": "", "departamento": "CUSCO", "provincia": "ACOMAYO", "distrito": "ACOS", "ubigeo_distrito": "080203", "lat": -13.89160933, "lon": -71.72455214, "altitud": 4214, "poblacion": 1}, {"codigo": "0802030063", "nombre": "CORMAPAMPA", "categoria": "", "departamento": "CUSCO", "provincia": "ACOMAYO", "distrito": "ACOS", "ubigeo_distrito": "080203", "lat": -13.91206455, "lon": -71.74261578, "altitud": 4044, "poblacion": 28}, {"codigo": "0802030064", "nombre": "CCOLCHAMOCCO", "categoria": "", "departamento": "CUSCO", "provincia": "ACOMAYO", "distrito": "ACOS", "ubigeo_distrito": "080203", "lat": -13.98167861, "lon": -71.71488342, "altitud": 3371, "poblacion": 0}, {"codigo": "0802030065", "nombre": "CHACATAYOC", "categoria": "", "departamento": "CUSCO", "provincia": "ACOMAYO", "distrito": "ACOS", "ubigeo_distrito": "080203", "lat": -13.9803579, "lon": -71.71242365, "altitud": 3455, "poblacion": 3}, {"codigo": "0802030066", "nombre": "CHECTA HUNCA", "categoria": "", "departamento": "CUSCO", "provincia": "ACOMAYO", "distrito": "ACOS", "ubigeo_distrito": "080203", "lat": -13.97778689, "lon": -71.71619807, "altitud": 3355, "poblacion": 2}, {"codigo": "0802030067", "nombre": "QUECHAR", "categoria": "", "departamento": "CUSCO", "provincia": "ACOMAYO", "distrito": "ACOS", "ubigeo_distrito": "080203", "lat": -13.98356834, "lon": -71.69911564, "altitud": 3793, "poblacion": 2}, {"codigo": "0802030068", "nombre": "QUISHUAR CCATA", "categoria": "", "departamento": "CUSCO", "provincia": "ACOMAYO", "distrito": "ACOS", "ubigeo_distrito": "080203", "lat": -13.98345228, "lon": -71.69140791, "altitud": 4003, "poblacion": 0}, {"codigo": "0802040001", "nombre": "MOSOC LLACTA", "categoria": "PUEBLO", "departamento": "CUSCO", "provincia": "ACOMAYO", "distrito": "MOSOC LLACTA", "ubigeo_distrito": "080204", "lat": -14.12032221, "lon": -71.47302193, "altitud": 3820, "poblacion": 627}, {"codigo": "0802040003", "nombre": "CHILCANI", "categoria": "OTROS", "departamento": "CUSCO", "provincia": "ACOMAYO", "distrito": "MOSOC LLACTA", "ubigeo_distrito": "080204", "lat": -14.08531667, "lon": -71.459015, "altitud": 3740, "poblacion": 69}, {"codigo": "0802040004", "nombre": "URUBAMBILLA", "categoria": "UNIDAD AGROPECUARIA", "departamento": "CUSCO", "provincia": "ACOMAYO", "distrito": "MOSOC LLACTA", "ubigeo_distrito": "080204", "lat": -14.103962, "lon": -71.440695, "altitud": 3471, "poblacion": 10}, {"codigo": "0802040005", "nombre": "CHACAMAYO", "categoria": "ANEXO", "departamento": "CUSCO", "provincia": "ACOMAYO", "distrito": "MOSOC LLACTA", "ubigeo_distrito": "080204", "lat": -14.11808833, "lon": -71.46001333, "altitud": 3815, "poblacion": 68}, {"codigo": "0802040006", "nombre": "THUMI", "categoria": "CASERIO", "departamento": "CUSCO", "provincia": "ACOMAYO", "distrito": "MOSOC LLACTA", "ubigeo_distrito": "080204", "lat": -14.12863167, "lon": -71.49676833, "altitud": 3809, "poblacion": 164}, {"codigo": "0802040007", "nombre": "HUARASAYCO", "categoria": "ANEXO", "departamento": "CUSCO", "provincia": "ACOMAYO", "distrito": "MOSOC LLACTA", "ubigeo_distrito": "080204", "lat": -14.110125, "lon": -71.515365, "altitud": 3982, "poblacion": 9}, {"codigo": "0802040008", "nombre": "TINYACCOCHA", "categoria": "OTROS", "departamento": "CUSCO", "provincia": "ACOMAYO", "distrito": "MOSOC LLACTA", "ubigeo_distrito": "080204", "lat": -14.08172667, "lon": -71.4621, "altitud": 3814, "poblacion": 46}, {"codigo": "0802040009", "nombre": "USA UNUPATA", "categoria": "OTROS", "departamento": "CUSCO", "provincia": "ACOMAYO", "distrito": "MOSOC LLACTA", "ubigeo_distrito": "080204", "lat": -14.08254167, "lon": -71.459695, "altitud": 3818, "poblacion": 16}, {"codigo": "0802040010", "nombre": "ERACHIMPA", "categoria": "OTROS", "departamento": "CUSCO", "provincia": "ACOMAYO", "distrito": "MOSOC LLACTA", "ubigeo_distrito": "080204", "lat": -14.08374833, "lon": -71.45874167, "altitud": 3752, "poblacion": 41}, {"codigo": "0802040011", "nombre": "OCCOPATA", "categoria": "OTROS", "departamento": "CUSCO", "provincia": "ACOMAYO", "distrito": "MOSOC LLACTA", "ubigeo_distrito": "080204", "lat": -14.09107167, "lon": -71.45701833, "altitud": 3701, "poblacion": 2}, {"codigo": "0802040012", "nombre": "BELLAVISTA", "categoria": "OTROS", "departamento": "CUSCO", "provincia": "ACOMAYO", "distrito": "MOSOC LLACTA", "ubigeo_distrito": "080204", "lat": -14.09865, "lon": -71.44375833, "altitud": 3469, "poblacion": 11}, {"codigo": "0802040013", "nombre": "JECHA JECHA", "categoria": "OTROS", "departamento": "CUSCO", "provincia": "ACOMAYO", "distrito": "MOSOC LLACTA", "ubigeo_distrito": "080204", "lat": -14.13036776, "lon": -71.49924572, "altitud": 3796, "poblacion": 6}, {"codigo": "0802040016", "nombre": "CCANCHA QHATA", "categoria": "OTROS", "departamento": "CUSCO", "provincia": "ACOMAYO", "distrito": "MOSOC LLACTA", "ubigeo_distrito": "080204", "lat": -14.10573333, "lon": -71.44217833, "altitud": 3517, "poblacion": 12}, {"codigo": "0802040017", "nombre": "PUJUNI", "categoria": "OTROS", "departamento": "CUSCO", "provincia": "ACOMAYO", "distrito": "MOSOC LLACTA", "ubigeo_distrito": "080204", "lat": -14.103785, "lon": -71.44467667, "altitud": 3495, "poblacion": 13}, {"codigo": "0802040018", "nombre": "SINGUÑA", "categoria": "OTROS", "departamento": "CUSCO", "provincia": "ACOMAYO", "distrito": "MOSOC LLACTA", "ubigeo_distrito": "080204", "lat": -14.09974833, "lon": -71.45295, "altitud": 3674, "poblacion": 2}, {"codigo": "0802050001", "nombre": "POMACANCHI", "categoria": "PUEBLO", "departamento": "CUSCO", "provincia": "ACOMAYO", "distrito": "POMACANCHI", "ubigeo_distrito": "080205", "lat": -14.03365877, "lon": -71.57429603, "altitud": 3708, "poblacion": 3448}, {"codigo": "0802050002", "nombre": "TTIO", "categoria": "CASERIO", "departamento": "CUSCO", "provincia": "ACOMAYO", "distrito": "POMACANCHI", "ubigeo_distrito": "080205", "lat": -13.962153, "lon": -71.586136, "altitud": 3797, "poblacion": 420}, {"codigo": "0802050003", "nombre": "MANZANARES", "categoria": "ANEXO", "departamento": "CUSCO", "provincia": "ACOMAYO", "distrito": "POMACANCHI", "ubigeo_distrito": "080205", "lat": -13.96798833, "lon": -71.59709667, "altitud": 3740, "poblacion": 92}, {"codigo": "0802050005", "nombre": "TUPAHUIRE", "categoria": "OTROS", "departamento": "CUSCO", "provincia": "ACOMAYO", "distrito": "POMACANCHI", "ubigeo_distrito": "080205", "lat": -14.00561333, "lon": -71.57089167, "altitud": 3694, "poblacion": 2}, {"codigo": "0802050006", "nombre": "CHOSECANI", "categoria": "CASERIO", "departamento": "CUSCO", "provincia": "ACOMAYO", "distrito": "POMACANCHI", "ubigeo_distrito": "080205", "lat": -13.98273639, "lon": -71.60023222, "altitud": 3724, "poblacion": 365}, {"codigo": "0802050009", "nombre": "SANTA ROSA DE MANCURA (SANTA ROSA)", "categoria": "CASERIO", "departamento": "CUSCO", "provincia": "ACOMAYO", "distrito": "POMACANCHI", "ubigeo_distrito": "080205", "lat": -13.99253, "lon": -71.59956833, "altitud": 3723, "poblacion": 367}, {"codigo": "0802050012", "nombre": "CHALLA", "categoria": "CASERIO", "departamento": "CUSCO", "provincia": "ACOMAYO", "distrito": "POMACANCHI", "ubigeo_distrito": "080205", "lat": -14.00870667, "lon": -71.58045167, "altitud": 3691, "poblacion": 79}, {"codigo": "0802050013", "nombre": "SAN JOSE DE CONCHACALLA", "categoria": "CASERIO", "departamento": "CUSCO", "provincia": "ACOMAYO", "distrito": "POMACANCHI", "ubigeo_distrito": "080205", "lat": -14.02135667, "lon": -71.56341833, "altitud": 3685, "poblacion": 267}, {"codigo": "0802050014", "nombre": "KERO", "categoria": "OTROS", "departamento": "CUSCO", "provincia": "ACOMAYO", "distrito": "POMACANCHI", "ubigeo_distrito": "080205", "lat": -14.03144542, "lon": -71.54602322, "altitud": 3684, "poblacion": 0}, {"codigo": "0802050016", "nombre": "CAPUYO", "categoria": "OTROS", "departamento": "CUSCO", "provincia": "ACOMAYO", "distrito": "POMACANCHI", "ubigeo_distrito": "080205", "lat": -14.02614833, "lon": -71.60595333, "altitud": 4088, "poblacion": 5}, {"codigo": "0802050017", "nombre": "TAUTEA", "categoria": "ANEXO", "departamento": "CUSCO", "provincia": "ACOMAYO", "distrito": "POMACANCHI", "ubigeo_distrito": "080205", "lat": -14.02932833, "lon": -71.71892833, "altitud": 3255, "poblacion": 47}, {"codigo": "0802050019", "nombre": "PUCARA PATA", "categoria": "OTROS", "departamento": "CUSCO", "provincia": "ACOMAYO", "distrito": "POMACANCHI", "ubigeo_distrito": "080205", "lat": -14.0456, "lon": -71.6105, "altitud": 4063, "poblacion": 0}, {"codigo": "0802050020", "nombre": "CANCHANURA", "categoria": "CASERIO", "departamento": "CUSCO", "provincia": "ACOMAYO", "distrito": "POMACANCHI", "ubigeo_distrito": "080205", "lat": -14.01176333, "lon": -71.61038833, "altitud": 4058, "poblacion": 245}, {"codigo": "0802050022", "nombre": "HUANCOCHURA", "categoria": "OTROS", "departamento": "CUSCO", "provincia": "ACOMAYO", "distrito": "POMACANCHI", "ubigeo_distrito": "080205", "lat": -14.04373667, "lon": -71.60310833, "altitud": 3947, "poblacion": 2}, {"codigo": "0802050023", "nombre": "CUNCAYLLA", "categoria": "OTROS", "departamento": "CUSCO", "provincia": "ACOMAYO", "distrito": "POMACANCHI", "ubigeo_distrito": "080205", "lat": -14.06423, "lon": -71.63683167, "altitud": 4330, "poblacion": 1}, {"codigo": "0802050024", "nombre": "HUASACHINCHA", "categoria": "OTROS", "departamento": "CUSCO", "provincia": "ACOMAYO", "distrito": "POMACANCHI", "ubigeo_distrito": "080205", "lat": -14.044275, "lon": -71.715865, "altitud": 3354, "poblacion": 19}, {"codigo": "0802050025", "nombre": "SURAPATA", "categoria": "OTROS", "departamento": "CUSCO", "provincia": "ACOMAYO", "distrito": "POMACANCHI", "ubigeo_distrito": "080205", "lat": -14.06777667, "lon": -71.61340167, "altitud": 4401, "poblacion": 0}, {"codigo": "0802050028", "nombre": "SAÑOPAQUI", "categoria": "OTROS", "departamento": "CUSCO", "provincia": "ACOMAYO", "distrito": "POMACANCHI", "ubigeo_distrito": "080205", "lat": -14.05538167, "lon": -71.69885167, "altitud": 3932, "poblacion": 9}, {"codigo": "0802050029", "nombre": "HUALLCANI", "categoria": "OTROS", "departamento": "CUSCO", "provincia": "ACOMAYO", "distrito": "POMACANCHI", "ubigeo_distrito": "080205", "lat": -14.09015833, "lon": -71.594085, "altitud": 4219, "poblacion": 4}, {"codigo": "0802050030", "nombre": "PALTAHUANCAYOC", "categoria": "OTROS", "departamento": "CUSCO", "provincia": "ACOMAYO", "distrito": "POMACANCHI", "ubigeo_distrito": "080205", "lat": -14.055245, "lon": -71.69727667, "altitud": 3953, "poblacion": 1}, {"codigo": "0802050034", "nombre": "SANTA LUCIA", "categoria": "CASERIO", "departamento": "CUSCO", "provincia": "ACOMAYO", "distrito": "POMACANCHI", "ubigeo_distrito": "080205", "lat": -14.06503102, "lon": -71.70466708, "altitud": 3634, "poblacion": 317}, {"codigo": "0802050036", "nombre": "SAYHUA", "categoria": "CASERIO", "departamento": "CUSCO", "provincia": "ACOMAYO", "distrito": "POMACANCHI", "ubigeo_distrito": "080205", "lat": -14.13851333, "lon": -71.60212, "altitud": 3578, "poblacion": 198}, {"codigo": "0802050038", "nombre": "ALCCACCOÑA", "categoria": "OTROS", "departamento": "CUSCO", "provincia": "ACOMAYO", "distrito": "POMACANCHI", "ubigeo_distrito": "080205", "lat": -14.12861667, "lon": -71.60452833, "altitud": 3854, "poblacion": 5}, {"codigo": "0802050039", "nombre": "SAYACRUMI", "categoria": "ANEXO", "departamento": "CUSCO", "provincia": "ACOMAYO", "distrito": "POMACANCHI", "ubigeo_distrito": "080205", "lat": -14.12250667, "lon": -71.60444667, "altitud": 4008, "poblacion": 14}, {"codigo": "0802050040", "nombre": "KENCCO MAYO", "categoria": "OTROS", "departamento": "CUSCO", "provincia": "ACOMAYO", "distrito": "POMACANCHI", "ubigeo_distrito": "080205", "lat": -14.11688333, "lon": -71.60797, "altitud": 3979, "poblacion": 7}, {"codigo": "0802050041", "nombre": "TARCA", "categoria": "ANEXO", "departamento": "CUSCO", "provincia": "ACOMAYO", "distrito": "POMACANCHI", "ubigeo_distrito": "080205", "lat": -14.130695, "lon": -71.63129833, "altitud": 3457, "poblacion": 112}, {"codigo": "0802050043", "nombre": "TOCCORANI", "categoria": "CASERIO", "departamento": "CUSCO", "provincia": "ACOMAYO", "distrito": "POMACANCHI", "ubigeo_distrito": "080205", "lat": -14.08034667, "lon": -71.69180667, "altitud": 3676, "poblacion": 248}, {"codigo": "0802050044", "nombre": "MACHUESTANCIA", "categoria": "OTROS", "departamento": "CUSCO", "provincia": "ACOMAYO", "distrito": "POMACANCHI", "ubigeo_distrito": "080205", "lat": -14.12204667, "lon": -71.59847667, "altitud": 3843, "poblacion": 12}, {"codigo": "0802050045", "nombre": "CHORACA", "categoria": "CASERIO", "departamento": "CUSCO", "provincia": "ACOMAYO", "distrito": "POMACANCHI", "ubigeo_distrito": "080205", "lat": -14.08857833, "lon": -71.66001167, "altitud": 3732, "poblacion": 48}, {"codigo": "0802050046", "nombre": "SAÑUPAQUI", "categoria": "OTROS", "departamento": "CUSCO", "provincia": "ACOMAYO", "distrito": "POMACANCHI", "ubigeo_distrito": "080205", "lat": -14.07748333, "lon": -71.64663833, "altitud": 4244, "poblacion": 12}, {"codigo": "0802050047", "nombre": "CONTUCHAPI", "categoria": "OTROS", "departamento": "CUSCO", "provincia": "ACOMAYO", "distrito": "POMACANCHI", "ubigeo_distrito": "080205", "lat": -14.12805833, "lon": -71.61145667, "altitud": 3926, "poblacion": 15}, {"codigo": "0802050048", "nombre": "PINTA", "categoria": "CASERIO", "departamento": "CUSCO", "provincia": "ACOMAYO", "distrito": "POMACANCHI", "ubigeo_distrito": "080205", "lat": -14.08184998, "lon": -71.64308998, "altitud": 4379, "poblacion": 2}, {"codigo": "0802050049", "nombre": "HUALLATERA", "categoria": "OTROS", "departamento": "CUSCO", "provincia": "ACOMAYO", "distrito": "POMACANCHI", "ubigeo_distrito": "080205", "lat": -14.089875, "lon": -71.65753833, "altitud": 3784, "poblacion": 28}, {"codigo": "0802050051", "nombre": "CHARAMAYO", "categoria": "OTROS", "departamento": "CUSCO", "provincia": "ACOMAYO", "distrito": "POMACANCHI", "ubigeo_distrito": "080205", "lat": -14.10881167, "lon": -71.65940333, "altitud": 3499, "poblacion": 2}, {"codigo": "0802050052", "nombre": "TORRECACCA", "categoria": "OTROS", "departamento": "CUSCO", "provincia": "ACOMAYO", "distrito": "POMACANCHI", "ubigeo_distrito": "080205", "lat": -14.09468, "lon": -71.64267, "altitud": 4095, "poblacion": 2}, {"codigo": "0802050053", "nombre": "CHUÑUPAMPA", "categoria": "OTROS", "departamento": "CUSCO", "provincia": "ACOMAYO", "distrito": "POMACANCHI", "ubigeo_distrito": "080205", "lat": -14.10500333, "lon": -71.68756333, "altitud": 3813, "poblacion": 18}, {"codigo": "0802050058", "nombre": "CCORAQUECHA", "categoria": "CASERIO", "departamento": "CUSCO", "provincia": "ACOMAYO", "distrito": "POMACANCHI", "ubigeo_distrito": "080205", "lat": -14.11493667, "lon": -71.65633167, "altitud": 3540, "poblacion": 97}, {"codigo": "0802050059", "nombre": "MIKAYA", "categoria": "OTROS", "departamento": "CUSCO", "provincia": "ACOMAYO", "distrito": "POMACANCHI", "ubigeo_distrito": "080205", "lat": -14.11616, "lon": -71.669805, "altitud": 3379, "poblacion": 0}, {"codigo": "0802050060", "nombre": "CHOQUEPUGIO", "categoria": "OTROS", "departamento": "CUSCO", "provincia": "ACOMAYO", "distrito": "POMACANCHI", "ubigeo_distrito": "080205", "lat": -14.12536667, "lon": -71.65225833, "altitud": 3279, "poblacion": 16}, {"codigo": "0802050061", "nombre": "IHUINA", "categoria": "OTROS", "departamento": "CUSCO", "provincia": "ACOMAYO", "distrito": "POMACANCHI", "ubigeo_distrito": "080205", "lat": -14.1094, "lon": -71.64951167, "altitud": 3808, "poblacion": 3}, {"codigo": "0802050062", "nombre": "MANCO", "categoria": "OTROS", "departamento": "CUSCO", "provincia": "ACOMAYO", "distrito": "POMACANCHI", "ubigeo_distrito": "080205", "lat": -14.105605, "lon": -71.61875667, "altitud": 4172, "poblacion": 3}, {"codigo": "0802050063", "nombre": "SAN JUAN", "categoria": "CASERIO", "departamento": "CUSCO", "provincia": "ACOMAYO", "distrito": "POMACANCHI", "ubigeo_distrito": "080205", "lat": -14.1155503, "lon": -71.66447932, "altitud": 3369, "poblacion": 347}, {"codigo": "0802050064", "nombre": "TARCAPAMPA", "categoria": "OTROS", "departamento": "CUSCO", "provincia": "ACOMAYO", "distrito": "POMACANCHI", "ubigeo_distrito": "080205", "lat": -14.130425, "lon": -71.64058167, "altitud": 3282, "poblacion": 10}, {"codigo": "0802050065", "nombre": "MAYUHUILLCA", "categoria": "OTROS", "departamento": "CUSCO", "provincia": "ACOMAYO", "distrito": "POMACANCHI", "ubigeo_distrito": "080205", "lat": -14.12517833, "lon": -71.65517833, "altitud": 3217, "poblacion": 9}, {"codigo": "0802050066", "nombre": "CUSCURA", "categoria": "OTROS", "departamento": "CUSCO", "provincia": "ACOMAYO", "distrito": "POMACANCHI", "ubigeo_distrito": "080205", "lat": -14.12120833, "lon": -71.65655833, "altitud": 3326, "poblacion": 7}, {"codigo": "0802050067", "nombre": "TOMAYCO", "categoria": "CASERIO", "departamento": "CUSCO", "provincia": "ACOMAYO", "distrito": "POMACANCHI", "ubigeo_distrito": "080205", "lat": -14.12178333, "lon": -71.64939167, "altitud": 3397, "poblacion": 53}, {"codigo": "0802050068", "nombre": "LACCO", "categoria": "OTROS", "departamento": "CUSCO", "provincia": "ACOMAYO", "distrito": "POMACANCHI", "ubigeo_distrito": "080205", "lat": -14.12586667, "lon": -71.64104667, "altitud": 3466, "poblacion": 4}, {"codigo": "0802050073", "nombre": "YUTUPUCJIO", "categoria": "OTROS", "departamento": "CUSCO", "provincia": "ACOMAYO", "distrito": "POMACANCHI", "ubigeo_distrito": "080205", "lat": -14.05833667, "lon": -71.69982833, "altitud": 3864, "poblacion": 6}, {"codigo": "0802050075", "nombre": "SANTA ANA", "categoria": "OTROS", "departamento": "CUSCO", "provincia": "ACOMAYO", "distrito": "POMACANCHI", "ubigeo_distrito": "080205", "lat": -14.06346, "lon": -71.70125667, "altitud": 3726, "poblacion": 69}, {"codigo": "0802050079", "nombre": "CCARANCCARAN", "categoria": "OTROS", "departamento": "CUSCO", "provincia": "ACOMAYO", "distrito": "POMACANCHI", "ubigeo_distrito": "080205", "lat": -14.08278667, "lon": -71.63696667, "altitud": 4314, "poblacion": 4}, {"codigo": "0802050081", "nombre": "QUERANIO", "categoria": "OTROS", "departamento": "CUSCO", "provincia": "ACOMAYO", "distrito": "POMACANCHI", "ubigeo_distrito": "080205", "lat": -14.103355, "lon": -71.64804667, "altitud": 3923, "poblacion": 11}, {"codigo": "0802050082", "nombre": "CCORUJO", "categoria": "OTROS", "departamento": "CUSCO", "provincia": "ACOMAYO", "distrito": "POMACANCHI", "ubigeo_distrito": "080205", "lat": -14.11266167, "lon": -71.60388333, "altitud": 4085, "poblacion": 18}, {"codigo": "0802050084", "nombre": "KAIRA PINCUYLLO", "categoria": "OTROS", "departamento": "CUSCO", "provincia": "ACOMAYO", "distrito": "POMACANCHI", "ubigeo_distrito": "080205", "lat": -14.10927167, "lon": -71.62388667, "altitud": 4120, "poblacion": 0}, {"codigo": "0802050087", "nombre": "LLOCLLOSCCAYA", "categoria": "OTROS", "departamento": "CUSCO", "provincia": "ACOMAYO", "distrito": "POMACANCHI", "ubigeo_distrito": "080205", "lat": -14.125085, "lon": -71.60046667, "altitud": 3768, "poblacion": 4}, {"codigo": "0802050088", "nombre": "GERCCAPATA (BISAÑA)", "categoria": "OTROS", "departamento": "CUSCO", "provincia": "ACOMAYO", "distrito": "POMACANCHI", "ubigeo_distrito": "080205", "lat": -14.121895, "lon": -71.61936333, "altitud": 3942, "poblacion": 4}, {"codigo": "0802050089", "nombre": "KANAPAMPA", "categoria": "OTROS", "departamento": "CUSCO", "provincia": "ACOMAYO", "distrito": "POMACANCHI", "ubigeo_distrito": "080205", "lat": -14.11701667, "lon": -71.61968333, "altitud": 3911, "poblacion": 0}, {"codigo": "0802050090", "nombre": "UYUCUNCA", "categoria": "OTROS", "departamento": "CUSCO", "provincia": "ACOMAYO", "distrito": "POMACANCHI", "ubigeo_distrito": "080205", "lat": -14.039325, "lon": -71.57923167, "altitud": 3731, "poblacion": 0}, {"codigo": "0802050092", "nombre": "CCASCCCARA", "categoria": "OTROS", "departamento": "CUSCO", "provincia": "ACOMAYO", "distrito": "POMACANCHI", "ubigeo_distrito": "080205", "lat": -14.057815, "lon": -71.60948667, "altitud": 4150, "poblacion": 0}, {"codigo": "0802050093", "nombre": "HUAQLALACCAY", "categoria": "OTROS", "departamento": "CUSCO", "provincia": "ACOMAYO", "distrito": "POMACANCHI", "ubigeo_distrito": "080205", "lat": -14.068435, "lon": -71.602495, "altitud": 4172, "poblacion": 0}, {"codigo": "0802050094", "nombre": "CONDORACHI", "categoria": "OTROS", "departamento": "CUSCO", "provincia": "ACOMAYO", "distrito": "POMACANCHI", "ubigeo_distrito": "080205", "lat": -14.04679167, "lon": -71.57360833, "altitud": 3744, "poblacion": 2}, {"codigo": "0802050096", "nombre": "PUTUNQUINA", "categoria": "OTROS", "departamento": "CUSCO", "provincia": "ACOMAYO", "distrito": "POMACANCHI", "ubigeo_distrito": "080205", "lat": -14.08867333, "lon": -71.63360167, "altitud": 4274, "poblacion": 2}, {"codigo": "0802050098", "nombre": "UCHUCUTANA", "categoria": "OTROS", "departamento": "CUSCO", "provincia": "ACOMAYO", "distrito": "POMACANCHI", "ubigeo_distrito": "080205", "lat": -14.093455, "lon": -71.63464, "altitud": 4319, "poblacion": 1}, {"codigo": "0802050099", "nombre": "AÑU AÑU PUCARA", "categoria": "OTROS", "departamento": "CUSCO", "provincia": "ACOMAYO", "distrito": "POMACANCHI", "ubigeo_distrito": "080205", "lat": -14.11146, "lon": -71.62853333, "altitud": 4103, "poblacion": 2}, {"codigo": "0802050105", "nombre": "PUMA PFAUCHI", "categoria": "OTROS", "departamento": "CUSCO", "provincia": "ACOMAYO", "distrito": "POMACANCHI", "ubigeo_distrito": "080205", "lat": -14.09114833, "lon": -71.64766, "altitud": 3982, "poblacion": 0}, {"codigo": "0802050106", "nombre": "CHAQUI PUGIO", "categoria": "OTROS", "departamento": "CUSCO", "provincia": "ACOMAYO", "distrito": "POMACANCHI", "ubigeo_distrito": "080205", "lat": -14.10805, "lon": -71.635005, "altitud": 4188, "poblacion": 3}, {"codigo": "0802050109", "nombre": "KINSA PUGIO", "categoria": "OTROS", "departamento": "CUSCO", "provincia": "ACOMAYO", "distrito": "POMACANCHI", "ubigeo_distrito": "080205", "lat": -14.10479833, "lon": -71.63440333, "altitud": 4220, "poblacion": 2}, {"codigo": "0802050110", "nombre": "HUALLATANI", "categoria": "OTROS", "departamento": "CUSCO", "provincia": "ACOMAYO", "distrito": "POMACANCHI", "ubigeo_distrito": "080205", "lat": -14.04732333, "lon": -71.64825667, "altitud": 4246, "poblacion": 1}, {"codigo": "0802050111", "nombre": "GALLO CCACCA", "categoria": "OTROS", "departamento": "CUSCO", "provincia": "ACOMAYO", "distrito": "POMACANCHI", "ubigeo_distrito": "080205", "lat": -14.04753667, "lon": -71.65543333, "altitud": 4153, "poblacion": 1}, {"codigo": "0802050113", "nombre": "WAYRAQ PUNKO", "categoria": "OTROS", "departamento": "CUSCO", "provincia": "ACOMAYO", "distrito": "POMACANCHI", "ubigeo_distrito": "080205", "lat": -14.10821167, "lon": -71.67411333, "altitud": 3574, "poblacion": 0}, {"codigo": "0802050116", "nombre": "HAYLLA OCCO", "categoria": "OTROS", "departamento": "CUSCO", "provincia": "ACOMAYO", "distrito": "POMACANCHI", "ubigeo_distrito": "080205", "lat": -14.04926833, "lon": -71.61687833, "altitud": 4279, "poblacion": 0}, {"codigo": "0802050117", "nombre": "LLAULLINE", "categoria": "OTROS", "departamento": "CUSCO", "provincia": "ACOMAYO", "distrito": "POMACANCHI", "ubigeo_distrito": "080205", "lat": -14.048035, "lon": -71.58923167, "altitud": 3822, "poblacion": 0}, {"codigo": "0802050118", "nombre": "YANAMACHAY", "categoria": "OTROS", "departamento": "CUSCO", "provincia": "ACOMAYO", "distrito": "POMACANCHI", "ubigeo_distrito": "080205", "lat": -14.0407, "lon": -71.61162, "altitud": 4091, "poblacion": 0}, {"codigo": "0802050119", "nombre": "CANLLICANLLIYOC", "categoria": "OTROS", "departamento": "CUSCO", "provincia": "ACOMAYO", "distrito": "POMACANCHI", "ubigeo_distrito": "080205", "lat": -14.05295167, "lon": -71.6975, "altitud": 3986, "poblacion": 0}, {"codigo": "0802050121", "nombre": "VILA CCOTA", "categoria": "OTROS", "departamento": "CUSCO", "provincia": "ACOMAYO", "distrito": "POMACANCHI", "ubigeo_distrito": "080205", "lat": -14.03326667, "lon": -71.63685, "altitud": 4329, "poblacion": 0}, {"codigo": "0802050124", "nombre": "CKACANI", "categoria": "OTROS", "departamento": "CUSCO", "provincia": "ACOMAYO", "distrito": "POMACANCHI", "ubigeo_distrito": "080205", "lat": -14.03170333, "lon": -71.71392167, "altitud": 3493, "poblacion": 6}, {"codigo": "0802050126", "nombre": "QUISCA CANCHA", "categoria": "OTROS", "departamento": "CUSCO", "provincia": "ACOMAYO", "distrito": "POMACANCHI", "ubigeo_distrito": "080205", "lat": -14.03519833, "lon": -71.65781667, "altitud": 4198, "poblacion": 6}, {"codigo": "0802050128", "nombre": "HUASI HUAYCCO", "categoria": "OTROS", "departamento": "CUSCO", "provincia": "ACOMAYO", "distrito": "POMACANCHI", "ubigeo_distrito": "080205", "lat": -14.004495, "lon": -71.60657667, "altitud": 3911, "poblacion": 0}, {"codigo": "0802050133", "nombre": "TINCUCMAYO", "categoria": "", "departamento": "CUSCO", "provincia": "ACOMAYO", "distrito": "POMACANCHI", "ubigeo_distrito": "080205", "lat": -14.04454, "lon": -71.65384333, "altitud": 4149, "poblacion": 0}, {"codigo": "0802050134", "nombre": "CHORACCA ALTA", "categoria": "", "departamento": "CUSCO", "provincia": "ACOMAYO", "distrito": "POMACANCHI", "ubigeo_distrito": "080205", "lat": -14.08511667, "lon": -71.6657, "altitud": 3945, "poblacion": 47}, {"codigo": "0802050135", "nombre": "WIRACCOLCCA", "categoria": "", "departamento": "CUSCO", "provincia": "ACOMAYO", "distrito": "POMACANCHI", "ubigeo_distrito": "080205", "lat": -14.06091667, "lon": -71.696405, "altitud": 3789, "poblacion": 18}, {"codigo": "0802050136", "nombre": "TOCCORANI BAJA", "categoria": "", "departamento": "CUSCO", "provincia": "ACOMAYO", "distrito": "POMACANCHI", "ubigeo_distrito": "080205", "lat": -14.08224833, "lon": -71.69145833, "altitud": 3687, "poblacion": 33}, {"codigo": "0802050137", "nombre": "SAN CAMILO", "categoria": "", "departamento": "CUSCO", "provincia": "ACOMAYO", "distrito": "POMACANCHI", "ubigeo_distrito": "080205", "lat": -14.05856667, "lon": -71.57041, "altitud": 3773, "poblacion": 4}, {"codigo": "0802050138", "nombre": "CHUSAC HUASI", "categoria": "", "departamento": "CUSCO", "provincia": "ACOMAYO", "distrito": "POMACANCHI", "ubigeo_distrito": "080205", "lat": -14.10937667, "lon": -71.60921167, "altitud": 4174, "poblacion": 0}, {"codigo": "0802060001", "nombre": "RONDOCAN", "categoria": "PUEBLO", "departamento": "CUSCO", "provincia": "ACOMAYO", "distrito": "RONDOCAN", "ubigeo_distrito": "080206", "lat": -13.77935134, "lon": -71.78208323, "altitud": 3394, "poblacion": 220}, {"codigo": "0802060004", "nombre": "TTIMPOR", "categoria": "OTROS", "departamento": "CUSCO", "provincia": "ACOMAYO", "distrito": "RONDOCAN", "ubigeo_distrito": "080206", "lat": -13.71478167, "lon": -71.78294833, "altitud": 4111, "poblacion": 28}, {"codigo": "0802060005", "nombre": "HUARCAY", "categoria": "OTROS", "departamento": "CUSCO", "provincia": "ACOMAYO", "distrito": "RONDOCAN", "ubigeo_distrito": "080206", "lat": -13.73564667, "lon": -71.759165, "altitud": 4041, "poblacion": 6}, {"codigo": "0802060006", "nombre": "CCOCHACCOYLLOR", "categoria": "ANEXO", "departamento": "CUSCO", "provincia": "ACOMAYO", "distrito": "RONDOCAN", "ubigeo_distrito": "080206", "lat": -13.729975, "lon": -71.76750333, "altitud": 3991, "poblacion": 12}, {"codigo": "0802060008", "nombre": "SAN JUAN DE QUIHUARES", "categoria": "CASERIO", "departamento": "CUSCO", "provincia": "ACOMAYO", "distrito": "RONDOCAN", "ubigeo_distrito": "080206", "lat": -13.74480599, "lon": -71.79678648, "altitud": 3669, "poblacion": 208}, {"codigo": "0802060010", "nombre": "TOCTOPAMPA", "categoria": "OTROS", "departamento": "CUSCO", "provincia": "ACOMAYO", "distrito": "RONDOCAN", "ubigeo_distrito": "080206", "lat": -13.75027833, "lon": -71.76323667, "altitud": 4029, "poblacion": 4}, {"codigo": "0802060011", "nombre": "PAROCCOCHA", "categoria": "CASERIO", "departamento": "CUSCO", "provincia": "ACOMAYO", "distrito": "RONDOCAN", "ubigeo_distrito": "080206", "lat": -13.75984167, "lon": -71.79991167, "altitud": 3232, "poblacion": 71},